stop_id,stop_code,stop_name,stop_desc,stop_lat,stop_lon,zone_id,stop_url,location_type,parent_station
36,HANMAIN,HANSON ST & E MAIN ST,,39.956666,-82.77903,,,,
54,MOUWAYW,W MOUND ST & S WAYNE AVE,,39.938547,-83.062991,,,,
141,MARIONS,MARION FRANKLIN COMMUNITY CENTER,MARION FRANKLIN COMMUNITY CTR,39.907661,-82.967364,,,,
388,SOUTER2,SOUTH TERMINAL BAY 2,COTA SOUTH TERMINAL & BAY 2,39.956887,-82.998934,,,,
411,SOUTER4,SOUTH TERMINAL BAY 4,COTA SOUTH TERMINAL & BAY 4,39.956887,-82.998934,,,,
427,SOUTER7,SOUTH TERMINAL BAY 7,COTA SOUTH TERMINAL & BAY 7,39.956905,-82.998922,,,,
429,NORTER2,NORTH TERMINAL BAY 2,COTA NORTH TERMINAL & BAY 2,39.965879,-83.002412,,,,
440,NORTER3,NORTH TERMINAL BAY 3,COTA NORTH TERMINAL & BAY 3,39.965879,-83.002412,,,,
454,SOUTER9,SOUTH TERMINAL BAY 9,COTA SOUTH TERMINAL & BAY 9,39.956905,-82.998922,,,,
455,NORTER4,NORTH TERMINAL BAY 4,COTA NORTH TERMINAL & BAY 4,39.965879,-83.002412,,,,
467,SOUTER3,SOUTH TERMINAL BAY 3,COTA SOUTH TERMINAL & BAY 3,39.956905,-82.998922,,,,
478,SOUTER6,SOUTH TERMINAL BAY 6,COTA SOUTH TERMINAL & BAY 6,39.956887,-82.998934,,,,
498,SOUTER8,SOUTH TERMINAL BAY 8,COTA SOUTH TERMINAL & BAY 8,39.956887,-82.998934,,,,
524,SOUTER5,SOUTH TERMINAL BAY 5,COTA SOUTH TERMINAL & BAY 5,39.956905,-82.998922,,,,
525,NORTER1,NORTH TERMINAL BAY 1,COTA NORTH TERMINAL & BAY 1,39.965879,-83.002412,,,,
568,NORTER5,NORTH TERMINAL BAY 5,COTA NORTH TERMINAL & BAY 5,39.965879,-83.002412,,,,
932,TECAEPE,TECHCENTER DR & AEP,TECHCENTER DR & AEP TECHCENTER LOOP,39.999934,-82.853834,,,,
1059,HIGHOSS,S HIGH ST & HOSACK ST,,39.92302,-82.995545,,,,
1086,LIVBULW,E LIVINGSTON AVE & BULEN AVE,,39.948836,-82.951647,,,,
1087,CLELONN,CLEVELAND AVE & E LONG ST,,39.966625,-82.990461,,,,
1088,CLESPRN,CLEVELAND AVE & E SPRING ST,,39.967745,-82.99052,,,,
1089,CLEMOUN,CLEVELAND AVE & MOUNT VERNON AVE,,39.969554,-82.99037,,,,
1090,CLEGRON,CLEVELAND AVE & GROVE ST,,39.970778,-82.990278,,,,
1091,CLEJACN,CLEVELAND AVE & JACK GIBBS BLVD,,39.972493,-82.990132,,,,
1094,CLE2NDN,CLEVELAND AVE & E 2ND AVE,,39.981514,-82.989457,,,,
1095,CLE3RDN,CLEVELAND AVE & E 3RD AVE,,39.983318,-82.989321,,,,
1098,CLESHON,CLEVELAND AVE & SHOEMAKER AVE,,39.988178,-82.987305,,,,
1099,CLECAMN,CLEVELAND AVE & CAMDEN AVE,,39.990831,-82.984583,,,,
1100,CLE11TN,CLEVELAND AVE & E 11TH AVE,,39.993413,-82.981879,,,,
1101,CLECHIN,CLEVELAND AVE & CHITTENDEN AVE,,39.995615,-82.979577,,,,
1102,CLEWINN,CLEVELAND AVE & WINDSOR AVE,,39.997133,-82.977974,,,,
1103,CLE15TN,CLEVELAND AVE & E 15TH AVE,,39.998468,-82.976803,,,,
1104,CLE17TN,CLEVELAND AVE & E 17TH AVE,,40.000161,-82.975688,,,,
1105,RIDREDW,RIDGECLIFF RD & REDDING RD,,40.023013,-83.07001,,,,
1106,CLE19TN,CLEVELAND AVE & E 19TH AVE,,40.002498,-82.974205,,,,
1108,CLE23RN,CLEVELAND AVE & E 23RD AVE,,40.005664,-82.972204,,,,
1109,CLE25TN,CLEVELAND AVE & E 25TH AVE,,40.006947,-82.971424,,,,
1110,CLEDUXN,CLEVELAND AVE & DUXBERRY AVE,,40.008692,-82.970345,,,,
1111,CLECORN,CLEVELAND AVE & CORDELL AVE,,40.011141,-82.968854,,,,
1113,CLEHUDN,CLEVELAND AVE & E HUDSON ST,,40.013473,-82.967418,,,,
1114,CLEREPN,CLEVELAND AVE & REPUBLIC AVE,,40.015552,-82.966119,,,,
1116,CLEGENN,CLEVELAND AVE & GENESSEE AVE,,40.018498,-82.964969,,,,
1117,CLELINN,CLEVELAND AVE & LINDEN PL,,40.020066,-82.964835,,,,
1118,CLEWEBN,CLEVELAND AVE & E WEBER RD,,40.022961,-82.964612,,,,
1119,CLELAKN,CLEVELAND AVE & E LAKEVIEW AVE,,40.025778,-82.964395,,,,
1122,CLENORBN,CLEVELAND AVE & E NORTH BROADWAY,,40.029775,-82.964074,,,,
1123,CLEOAKN,CLEVELAND AVE & OAKLAND PARK AVE,,40.031563,-82.9639,,,,
1124,CLEHUYN,CLEVELAND AVE & HUY RD,,40.034844,-82.963432,,,,
1125,INNDERE,INNIS RD & DERBYSHIRE DR,,40.037124,-82.958278,,,,
1127,INNUSPW,INNIS RD & US POSTAL SERVICE,2200 INNIS RD,40.037179,-82.955294,,,,
1128,INNCLEW,INNIS RD & CLEVELAND AVE,,40.037463,-82.96211,,,,
1129,NORINNIS,NORTHERN LIGHTS SVC RD & INNIS RD,,40.038016,-82.963139,,,,
1132,CLEHUYS,CLEVELAND AVE & HUY RD,,40.035356,-82.963557,,,,
1134,CLEOAKS,CLEVELAND AVE & OAKLAND PARK AVE,,40.03154,-82.964134,,,,
1135,CLENORS,CLEVELAND AVE & E NORTH BROADWAY,,40.029236,-82.964277,,,,
1136,CLEWELS,CLEVELAND AVE & WELDON AVE,,40.027433,-82.964417,,,,
1137,CLELAKS,CLEVELAND AVE & E LAKEVIEW AVE,,40.025441,-82.964577,,,,
1139,CLEWEBS,CLEVELAND AVE & E WEBER RD,,40.02293,-82.964823,,,,
1140,CLEABES,CLEVELAND AVE & ABERDEEN AVE,,40.02034,-82.965028,,,,
1141,CLEGENS,CLEVELAND AVE & GENESSEE AVE,,40.019214,-82.965118,,,,
1143,CLEHUDS,CLEVELAND AVE & E HUDSON ST,,40.013425,-82.967624,,,,
1144,CLECORS,CLEVELAND AVE & CORDELL AVE,,40.010981,-82.969128,,,,
1145,CLEMAYS,CLEVELAND AVE & E MAYNARD AVE,,40.009574,-82.969991,,,,
1146,CLE26TS,CLEVELAND AVE & E 26TH AVE,,40.007815,-82.971065,,,,
1147,CLE24TS,CLEVELAND AVE & E 24TH AVE,,40.006441,-82.971912,,,,
1148,CLE22NS,CLEVELAND AVE & E 22ND AVE,,40.004542,-82.97307,,,,
1150,CLE18TS,CLEVELAND AVE & E 18TH AVE,,40.001395,-82.975098,,,,
1151,CLE17TS,CLEVELAND AVE & E 17TH AVE,,39.99993,-82.976077,,,,
1152,CLE15TS,CLEVELAND AVE & E 15TH AVE,,39.998827,-82.976748,,,,
1153,KEN205N,2050 KENNY RD,,40.001266,-83.034379,,,,
1154,CLECHIS,CLEVELAND AVE & CHITTENDEN AVE,,39.995158,-82.980264,,,,
1155,CLE11TS,CLEVELAND AVE & E 11TH AVE,,39.993929,-82.981548,,,,
1157,CLECAMS,CLEVELAND AVE & CAMDEN AVE,,39.990797,-82.984812,,,,
1158,CLEESSS,CLEVELAND AVE & ESSEX AVE,,39.98779,-82.987898,,,,
1162,CLEREYS,CLEVELAND AVE & REYNOLDS AVE,,39.981173,-82.989635,,,,
1163,CLE427S,427 CLEVELAND AVE,,39.972679,-82.990338,,,,
1165,CLEMCCS,CLEVELAND AVE & MCCOY ST,,39.971123,-82.990424,,,,
1166,CLEMOUS,CLEVELAND AVE & MOUNT VERNON AVE,,39.969412,-82.990554,,,,
1167,BRODOUE,E BROAD ST & S DOUGLAS ST,,39.964733,-82.977962,,,,
1168,BROMAPE,E BROAD ST & MAPLEWOOD AVE,,39.973168,-82.901904,,,,
1169,BROCOLE,E BROAD ST & COLLINGWOOD AVE,,39.973432,-82.899294,,,,
1170,BROHOLE,E BROAD ST & HOLIDAY LANES,,39.975546,-82.879085,,,,
1171,BROCARE,E BROAD ST & CARDINAL PARK DR,,39.977563,-82.860342,,,,
1172,BROCARW,E BROAD ST & CARDINAL PARK DR,,39.977797,-82.860237,,,,
1174,HAMETNN,S HAMILTON RD & ETNA RD,,39.964279,-82.875928,,,,
1175,NORCHENW,NORTHWEST BLVD & CHESAPEAKE AVE,,39.992427,-83.040676,,,,
1178,HIGRUSN,N HIGH ST & E RUSSELL ST,,39.975825,-83.003188,,,,
1179,HIGBUTN,N HIGH ST & BUTTLES AVE,,39.977556,-83.00353,,,,
1180,HIGHUBN,N HIGH ST & E HUBBARD AVE,,39.979333,-83.003871,,,,
1181,HIG1STN,N HIGH ST & E 1ST AVE,,39.98127,-83.004232,,,,
1182,HIG2NDN,N HIGH ST & E 2ND AVE,,39.983318,-83.004658,,,,
1183,HIG4THN,N HIGH ST & E 4TH AVE,,39.985183,-83.005031,,,,
1184,HIG5THN,N HIGH ST & E 5TH AVE,,39.987609,-83.005524,,,,
1185,HIG6THN,N HIGH ST & E 6TH AVE,,39.989174,-83.005819,,,,
1186,HIGEUCN,N HIGH ST & EUCLID AVE,,39.991224,-83.006225,,,,
1188,HIGCHIN,N HIGH ST & CHITTENDEN AVE,,39.99602,-83.007178,,,,
1189,HIG13TN,N HIGH ST & E 13TH AVE,,39.997729,-83.007506,,,,
1190,HIG15TN,N HIGH ST & E 15TH AVE,,40.000285,-83.007989,,,,
1192,HIGWOON,N HIGH ST & W WOODRUFF AVE,,40.003566,-83.008642,,,,
1193,HIGLANN,N HIGH ST & E LANE AVE,,40.006365,-83.00921,,,,
1194,HIGNORN,N HIGH ST & E NORTHWOOD AVE,,40.007789,-83.00949,,,,
1195,HIGPATN,N HIGH ST & PATTERSON AVE,,40.009907,-83.010044,,,,
1196,HIGBLAN,N HIGH ST & E BLAKE AVE,,40.011654,-83.0105,,,,
1197,HIGHUDN,N HIGH ST & E HUDSON ST,,40.01426,-83.011194,,,,
1198,HIGDODN,N HIGH ST & E DODRIDGE ST,,40.016549,-83.011808,,,,
1200,HIGOLEN,N HIGH ST & OLENTANGY ST,,40.019489,-83.012549,,,,
1201,HIGKELN,N HIGH ST & E KELSO RD,,40.021572,-83.0131,,,,
1202,HIGWEBN,N HIGH ST & E WEBER RD,,40.024318,-83.013843,,,,
1203,HIGPACN,N HIGH ST & E PACEMONT RD,,40.026515,-83.014402,,,,
1204,HIGCOMN,N HIGH ST & E COMO AVE,,40.028486,-83.014928,,,,
1206,HIGNORN,N HIGH ST & E NORTH BROADWAY,,40.031894,-83.01582,,,,
1208,HIGTORN,N HIGH ST & E TORRENCE RD,,40.03504,-83.016675,,,,
1209,HIGGLENN,N HIGH ST & GLENCOE RD,,40.037462,-83.017317,,,,
1210,HIGFALN,N HIGH ST & FALLIS RD,,40.039262,-83.017799,,,,
1211,HIGACTN,N HIGH ST & ACTON RD,,40.041043,-83.018284,,,,
1213,HIGGLEN,N HIGH ST & GLENMONT AVE,,40.044801,-83.0193,,,,
1215,HIGINDN,N HIGH ST & INDIAN SPRINGS DR,,40.047648,-83.020074,,,,
1216,HIGCOON,N HIGH ST & E COOKE RD,,40.050206,-83.020081,,,,
1217,HIGSCHN,N HIGH ST & E SCHREYER PL,,40.05243,-83.019959,,,,
1218,HIGWEIN,N HIGH ST & E WEISHEIMER RD,,40.055285,-83.019802,,,,
1219,HIGBEAN,N HIGH ST & E BEAUMONT RD,,40.057521,-83.019665,,,,
1222,HIGLELN,N HIGH ST & LELAND AVE,,40.06335,-83.019332,,,,
1224,HIG522N,5220 N HIGH ST,,40.068606,-83.019063,,,,
1225,HIGKANN,N HIGH ST & E KANAWHA AVE,,40.070938,-83.018945,,,,
1227,HIGMEAN,N HIGH ST & MEADOWLARK LN,,40.07339,-83.018818,,,,
1229,HIGSELN,N HIGH ST & E SELBY BLVD,,40.077079,-83.018629,,,,
1230,HIGSOUTN,N HIGH ST & E SOUTHINGTON AVE,,40.080403,-83.018454,,,,
1232,HIGSOUN,HIGH ST & E SOUTH ST,,40.084195,-83.018254,,,,
1233,HIGNEWN,HIGH ST & NEW ENGLAND AVE,,40.086581,-83.018122,,,,
1234,HIG161N,N HIGH ST & STATE ROUTE 161,,40.088592,-83.017994,,,,
1235,HIGSTAFN,HIGH ST & STAFFORD AVE,,40.090752,-83.01787,,,,
1236,HIGNORN,HIGH ST & E NORTH ST,,40.092811,-83.017755,,,,
1238,HIGLARN,N HIGH ST & LARRIMER AVE,,40.099024,-83.01732,,,,
1240,HIGHALN,N HIGH ST & HALLIGAN AVE,,40.103554,-83.017036,,,,
1241,WILHIGW,W WILSON BRIDGE RD & N HIGH ST,,40.107165,-83.018236,,,,
1243,NORWILSS,NORTHWEST BLVD & WILSHIRE DR,,40.009723,-83.058083,,,,
1244,HARLAUS,HARRISBURG PIKE & LAUREL AVE,,39.934689,-83.045082,,,,
1245,RIEWHIS,RIEBER ST & WHITNEY AVE,,40.103409,-83.028283,,,,
1246,RIELAMS,RIEBER ST & LAMBOURNE AVE,,40.101097,-83.028451,,,,
1248,LAMSTEE,LAMBOURNE AVE & STENTEN ST,,40.100898,-83.023981,,,,
1249,BRO1STS,BROADWAY & 1ST AVE,,39.899425,-83.079517,,,,
1250,LARSCHE,LARRIMER AVE & SCHREINER ST W,,40.099606,-83.021381,,,,
1251,HIGSTAS,S HIGH ST & W STATE ST,,39.960285,-83.000381,,,,
1252,HIGWORS,N HIGH ST & WORTHINGTON GALENA RD,,40.095437,-83.017751,,,,
1253,HIGNORTS,N HIGH ST & W NORTH ST,,40.092656,-83.017952,,,,
1254,HIGSTAFS,HIGH ST & STAFFORD AVE,,40.091242,-83.018032,,,,
1255,HIG161S,N HIGH ST & STATE ROUTE 161,,40.08914,-83.018156,,,,
1256,HIGNEWS,HIGH ST & NEW ENGLAND AVE,,40.086901,-83.018295,,,,
1257,HIGSOUS,N HIGH ST & W SOUTH ST,,40.084588,-83.018448,,,,
1259,HIGSOUTS,N HIGH ST & W SOUTHINGTON AVE,,40.080338,-83.018668,,,,
1260,HIGSELS,N HIGH ST & W SELBY BLVD,,40.076818,-83.018842,,,,
1262,HIGBROAS,N HIGH ST & BROADMEADOWS BLVD,,40.073281,-83.019023,,,,
1263,HIGKANS,N HIGH ST & W KANAWHA AVE,,40.071322,-83.019137,,,,
1264,HIGFENS,N HIGH ST & FENWAY RD,,40.067701,-83.019307,,,,
1265,HIG521S,5211 N HIGH ST,,40.068938,-83.019253,,,,
1266,HIGGRA2S,N HIGH ST & GRACELAND BLVD 2,,40.064672,-83.019459,,,,
1268,HIGJEFS,N HIGH ST & E JEFFREY PL,,40.061622,-83.019633,,,,
1270,HIGBEES,N HIGH ST & W BEECHWOLD BLVD,,40.058736,-83.019785,,,,
1271,HIGSHES,N HIGH ST & SHEFFIELD RD,,40.056126,-83.019942,,,,
1273,HIGHENS,N HIGH ST & W HENDERSON RD,,40.05161,-83.0202,,,,
1274,HIGCOOS,N HIGH ST & W COOKE RD,,40.049481,-83.020322,,,,
1275,HIGWESS,N HIGH ST & WESTWOOD RD,,40.046871,-83.020053,,,,
1276,HIGBLES,N HIGH ST & BLENHEIM RD,,40.044104,-83.019309,,,,
1277,HIGCHAS,N HIGH ST & CHATHAM RD,,40.042096,-83.018767,,,,
1278,HIGAMAS,N HIGH ST & AMAZON PL,,40.0403,-83.018287,,,,
1279,HIGNORMS,N HIGH ST & NORTHMOOR PL,,40.036224,-83.017185,,,,
1280,HIGKENS,N HIGH ST & W KENWORTH RD,,40.032893,-83.016325,,,,
1281,HIGNORS,N HIGH ST & W NORTH BROADWAY ST,,40.030851,-83.015793,,,,
1283,HIGLAKS,N HIGH ST & W LAKEVIEW AVE,,40.027295,-83.01485,,,,
1284,HIGWEBS,N HIGH ST & W WEBER RD,,40.024689,-83.014164,,,,
1285,HIGCRES,N HIGH ST & CRESTVIEW RD,,40.022585,-83.013612,,,,
1286,HIGOLES,N HIGH ST & OLENTANGY ST,,40.019816,-83.01288,,,,
1287,HIGDODS,N HIGH ST & W DODRIDGE ST,,40.016273,-83.011874,,,,
1288,HIGHUDS,N HIGH ST & W HUDSON ST,,40.014079,-83.011307,,,,
1290,HIGMAYS,N HIGH ST & W MAYNARD AVE,,40.01139,-83.010561,,,,
1291,HIGOAKS,N HIGH ST & W OAKLAND AVE,,40.009249,-83.010043,,,,
1292,HIGNORWS,N HIGH ST & W NORTHWOOD AVE,,40.007766,-83.009657,,,,
1295,HIG15TS,N HIGH ST & E 15TH AVE,,39.999731,-83.008093,,,,
1296,HIG13TS,N HIGH ST & E 13TH AVE,,39.998105,-83.00777,,,,
1297,HIGCHIS,N HIGH ST & CHITTENDEN AVE,,39.995901,-83.007325,,,,
1298,HIG10TS,N HIGH ST & W 10TH AVE,,39.993781,-83.006902,,,,
1300,HIGKINS,N HIGH ST & KING AVE,,39.990316,-83.00623,,,,
1301,HIGCLAS,N HIGH ST & CLARK PL,,39.988966,-83.005955,,,,
1302,HIG5THS,N HIGH ST & W 5TH AVE,,39.986763,-83.005527,,,,
1303,HIG4THS,N HIGH ST & W 4TH AVE,,39.98496,-83.005203,,,,
1304,HIGSTARS,N HIGH ST & W STARR AVE,,39.983037,-83.004829,,,,
1305,HIGPRIS,N HIGH ST & PRICE AVE,,39.980398,-83.004296,,,,
1306,HIGHUBS,N HIGH ST & W HUBBARD AVE,,39.978538,-83.003938,,,,
1307,HIGBUTS,N HIGH ST & BUTTLES AVE,,39.976915,-83.003575,,,,
1308,HIGRUSS,N HIGH ST & W RUSSELL ST,,39.975286,-83.00323,,,,
1309,COLRICW,COLUMBUS ST & RICHARD AVE,,39.88154,-83.080869,,,,
1312,BRO1STN,BROADWAY & 1ST AVE,,39.899293,-83.079356,,,,
1313,HARBLUN,HARRISBURG PIKE & BLUE ROCK BLVD,,39.910849,-83.069464,,,,
1314,NEISPRN,NEIL AVE & W SPRING ST,,39.966722,-83.009595,,,,
1318,NEICOLN,NEIL AVE & COLLINS AVE,,39.976155,-83.010797,,,,
1319,BUTNEIWF,BUTTLES AVE & NEIL AVE,,39.977516,-83.011616,,,,
1320,HARBUTN,HARRISON AVE & BUTTLES AVE,,39.977915,-83.014398,,,,
1321,HAR1STN,HARRISON AVE & W 1ST AVE,,39.980311,-83.014268,,,,
1323,MIC1STN,MICHIGAN AVE & W 1ST AVE,,39.980971,-83.01695,,,,
1324,MIC3RDN,MICHIGAN AVE & W 3RD AVE,,39.983684,-83.016798,,,,
1325,3RDPERW,W 3RD AVE & PERRY ST,,39.984044,-83.019399,,,,
1326,3RDOLEW,W 3RD AVE & OLENTANGY RIVER RD,,39.984287,-83.024608,,,,
1327,3RD800W,800 W 3RD AVE,,39.984385,-83.027091,,,,
1328,3RDEDGW,W 3RD AVE & EDGEHILL RD,,39.984498,-83.029867,,,,
1329,3RDNORW,W 3RD AVE & NORTON AVE,,39.984595,-83.0319,,,,
1330,3RDOXLW,W 3RD AVE & OXLEY RD,,39.984727,-83.034929,,,,
1331,3RDVIRW,W 3RD AVE & VIRGINIA AVE,,39.984808,-83.036934,,,,
1332,GOO868W,868 W GOODALE BLVD,,39.974339,-83.026774,,,,
1333,NORTHONW,NORTHWEST BLVD & THORNWOOD PL,,39.986967,-83.04082,,,,
1334,NOR5THN,NORTHWEST BLVD & W 5TH AVE,,39.988911,-83.040689,,,,
1336,HIGHALS,N HIGH ST & HALLIGAN AVE,,40.103119,-83.017269,,,,
1338,RIV5THS,RIVERSIDE DR & W 5TH AVE,,39.989877,-83.064345,,,,
1340,NORELMNW,NORTHWEST BLVD & ELMWOOD AVE,,39.997461,-83.050204,,,,
1341,NORGLENW,NORTHWEST BLVD & GLENN AVE,,39.998608,-83.052666,,,,
1342,NORBARNW,NORTHWEST BLVD & BARRINGTON RD,,39.999801,-83.054031,,,,
1343,NORGUINW,NORTHWEST BLVD & GUILFORD RD,,40.001613,-83.055291,,,,
1344,NORBRANW,NORTHWEST BLVD & BRANDON RD,,40.003121,-83.057064,,,,
1345,NORBERNW,NORTHWEST BLVD & BERKSHIRE RD,,40.005334,-83.058208,,,,
1347,MAI5THE,E MAIN ST & S 5TH ST,,39.956876,-82.992364,,,,
1351,ROCLANW2,ROCKY FORK BLVD & LANDOVER PL,,40.013306,-82.863631,,,,
1358,NELAVAN,N NELSON RD & AVALON PL,,39.982398,-82.94266,,,,
1360,NELOPPN,N NELSON RD & MARGARET AVE,,39.984798,-82.941564,,,,
1363,NELAVAS,N NELSON RD & AVALON PL,,39.981882,-82.94307,,,,
1364,MURBRON,N MURRAY HILL RD & W BROAD ST,,39.953663,-83.129257,,,,
1366,STUBEAN,STURBRIDGE RD & BEACON HILL RD,,39.954182,-83.136245,,,,
1368,ZOLLEEE,ZOLLINGER RD & LEEDS RD,,40.019661,-83.078606,,,,
1369,ZOLASBE,ZOLLINGER RD & ASBURY DR,,40.019525,-83.075881,,,,
1370,ZOLMOUE,ZOLLINGER RD & MOUNTVIEW RD,,40.019334,-83.072421,,,,
1371,REDZOLS,REDDING RD & ZOLLINGER RD,,40.018841,-83.06982,,,,
1372,REDINCS,REDDING RD & INCHCLIFF RD,,40.017737,-83.069866,,,,
1373,REDRIDS,REDDING RD & RIDGEVIEW RD,,40.016132,-83.06996,,,,
1374,REDEDIS,REDDING RD & EDINGTON RD,,40.014092,-83.070091,,,,
1375,COBHENN,COBBLESTONE DR & HENDERSON RD,,40.058825,-83.078221,,,,
1378,MURBIGS,N MURRAY HILL RD & W BROAD ST,,39.953711,-83.129487,,,,
1379,HIGLARS,N HIGH ST & LARRIMER AVE,,40.098805,-83.017529,,,,
1382,5TH220W,2200 W 5TH AVE,,39.989715,-83.065637,,,,
1384,5TH2200E,2200 W 5TH AVE,,39.989582,-83.065361,,,,
1385,HIGSTEN,S HIGH ST & STEWART AVE,,39.941826,-82.99657,,,,
1395,3RDNWBE,W 3RD AVE & NORTHWEST BLVD,,39.984792,-83.038561,,,,
1396,3RDVIRE,W 3RD AVE & VIRGINIA AVE,,39.984739,-83.037293,,,,
1397,3RDOXLE,W 3RD AVE & OXLEY RD,,39.984633,-83.034702,,,,
1398,3RDPARE,W 3RD AVE & PARKWAY N,,39.984549,-83.033148,,,,
1399,3RDEDGE,W 3RD AVE & EDGEHILL RD,,39.984401,-83.02962,,,,
1400,3RDPERE,W 3RD AVE & PERRY ST,,39.983906,-83.018729,,,,
1401,3RDPENE,W 3RD AVE & PENNSYLVANIA AVE,,39.983805,-83.015952,,,,
1402,NORLANNF,NORTHWEST BLVD & W LANE AVE,,40.008093,-83.057974,,,,
1403,PEN2NDS,PENNSYLVANIA AVE & W 2ND AVE,,39.982386,-83.015621,,,,
1404,1STPENE,W 1ST AVE & PENNSYLVANIA AVE,,39.98051,-83.015327,,,,
1405,HAR1STS,HARRISON AVE & W 1ST AVE,,39.980149,-83.014401,,,,
1406,HARBUTS,HARRISON AVE & BUTTLES AVE,,39.977733,-83.014555,,,,
1407,BUTNEIEN,BUTTLES AVE & NEIL AVE,,39.977415,-83.011463,,,,
1408,NEICOLS,NEIL AVE & COLLINS AVE,,39.976043,-83.010968,,,,
1409,NEIGOOS,NEIL AVE & W GOODALE ST,,39.974442,-83.010669,,,,
1411,NEINATS,NEIL AVE & NATIONWIDE BLVD,,39.967669,-83.009793,,,,
1412,NEISPRS,NEIL AVE & W SPRING ST,,39.966276,-83.009899,,,,
1416,4TH803N,803 N 4TH ST,,39.979148,-82.99801,,,,
1418,4TH2NDN,N 4TH ST & E 2ND AVE,,39.982593,-82.998675,,,,
1419,4THDETN,N 4TH ST & DETROIT AVE,,39.984572,-82.999064,,,,
1420,4TH5THN,N 4TH ST & E 5TH AVE,,39.987285,-82.999469,,,,
1423,4TH9THN,N 4TH ST & E 9TH AVE,,39.993098,-82.999102,,,,
1425,4THCHIN,N 4TH ST & CHITTENDEN AVE,,39.995211,-82.998963,,,,
1426,4TH13TN,N 4TH ST & E 13TH AVE,,39.997282,-82.998814,,,,
1427,4TH15TN,N 4TH ST & E 15TH AVE,,39.999453,-82.998662,,,,
1428,4TH17TN,N 4TH ST & E 17TH AVE,,40.001644,-82.998508,,,,
1429,4TH19TN,N 4TH ST & E 19TH AVE,,40.003087,-82.998406,,,,
1430,4THLANN,N 4TH ST & E LANE AVE,,40.005069,-82.998273,,,,
1431,4THNORN,N 4TH ST & NORTHWOOD AVE,,40.007055,-82.998128,,,,
1432,4THOAKN,N 4TH ST & OAKLAND AVE,,40.00897,-82.998007,,,,
1433,4THMAYN,N 4TH ST & MAYNARD AVE,,40.010894,-82.997879,,,,
1434,4THCLIN,N 4TH ST & CLINTON ST,,40.012825,-82.997736,,,,
1436,HUDSUMW,E HUDSON ST & SUMMIT ST,,40.015189,-83.000464,,,,
1438,INDARCN,INDIANOLA AVE & E ARCADIA AVE,,40.017265,-83.001996,,,,
1439,INDPARN,INDIANOLA AVE & PARKVIEW DR,,40.019847,-83.001817,,,,
1441,INDTULN,INDIANOLA AVE & E TULANE RD,,40.022624,-83.00163,,,,
1442,INDWEBN,INDIANOLA AVE & E WEBER RD,,40.024286,-83.001524,,,,
1443,INDMILN,INDIANOLA AVE & MILFORD AVE,,40.026042,-83.00137,,,,
1444,INDCOMN,INDIANOLA AVE & E COMO AVE,,40.027922,-83.001237,,,,
1445,INDCLIN,INDIANOLA AVE & CLINTON HGTS AVE,,40.02985,-83.001075,,,,
1446,INDNORN,INDIANOLA AVE & E N BROADWAY,INDIANOLA AVE & E NORTH BROADWAY,40.031592,-83.000913,,,,
1448,INDPIEN,INDIANOLA AVE & PIEDMONT RD,,40.034717,-83.000704,,,,
1449,INDTORN,INDIANOLA AVE & TORRENCE RD,,40.036677,-83.000599,,,,
1450,INDFALN,INDIANOLA AVE & FALLIS RD,,40.038877,-83.000426,,,,
1452,INDNORTN,INDIANOLA AVE & NORTHRIDGE RD,,40.041911,-83.000165,,,,
1453,INDGLEN,INDIANOLA AVE & GLENMONT AVE,,40.044037,-82.999991,,,,
1454,INDCOON,INDIANOLA AVE & E COOKE RD,,40.048886,-82.999734,,,,
1457,INDWEIN,INDIANOLA AVE & E WEISHEIMER RD,,40.054307,-83.000233,,,,
1458,INDBEAN,INDIANOLA AVE & E BEAUMONT RD,,40.057207,-83.000497,,,,
1460,INDJEFN,INDIANOLA AVE & E JEFFREY PL,,40.060621,-83.000963,,,,
1461,MORCOLW,MORSE RD & COLERAIN AVE,,40.061853,-83.003345,,,,
1462,MORBEEW,MORSE RD & BEECH HILL AVE,,40.061973,-83.006135,,,,
1464,MORELKW,MORSE RD & ELKS DR,,40.06217,-83.010872,,,,
1465,MORFOSW,MORSE RD & FOSTER ST,,40.062311,-83.014211,,,,
1466,MORBEECW,MORSE RD & BEECHMONT DR,,40.062401,-83.016348,,,,
1467,BROOLDW,W BROAD ST & OLD VILLAGE RD,,39.95257,-83.124184,,,,
1470,MORFOSE,MORSE RD & FOSTER ST,,40.062144,-83.014088,,,,
1471,MORELKE,MORSE RD & ELKS DR,,40.06203,-83.011364,,,,
1472,MORSHAE,MORSE RD & SHARON AVE,,40.061891,-83.008078,,,,
1474,MORCOLE,MORSE RD & COLERAIN AVE,,40.06168,-83.003219,,,,
1475,INDJEFS,INDIANOLA AVE & E JEFFREY PL,,40.060403,-83.001057,,,,
1476,HIGDELS,S HIGH ST & DELRAY RD,,39.91059,-82.995466,,,,
1478,INDBEAS,INDIANOLA AVE & E BEAUMONT RD,,40.056835,-83.000625,,,,
1479,HIGHIGHN,N HIGH ST & HIGHLAND AVE,,40.105483,-83.016919,,,,
1480,INDSCHS,INDIANOLA AVE & SCHREYER PL,,40.051874,-83.000193,,,,
1481,INDCOOS,INDIANOLA AVE & E COOKE RD,,40.048206,-82.999951,,,,
1482,INDGLES,INDIANOLA AVE & GLENMONT AVE,,40.044375,-83.000151,,,,
1483,INDNORTS,INDIANOLA AVE & NORTHRIDGE RD,,40.042153,-83.000305,,,,
1485,INDFALS,INDIANOLA AVE & FALLIS RD,,40.03864,-83.000611,,,,
1486,INDTORS,INDIANOLA AVE & E TORRENCE RD,,40.036487,-83.000722,,,,
1488,INDOAKS,INDIANOLA AVE & OAKLAND PARK AVE,,40.033155,-83.000965,,,,
1489,INDNORS,INDIANOLA AVE & E NORTH BROADWAY,,40.031094,-83.001114,,,,
1490,INDWALS,INDIANOLA AVE & WALHALLA RD,,40.028976,-83.00135,,,,
1491,INDMELS,INDIANOLA AVE & MELROSE AVE,,40.025421,-83.001623,,,,
1492,INDTIBS,INDIANOLA AVE & TIBET RD,,40.02367,-83.001768,,,,
1493,INDCRES,INDIANOLA AVE & CRESTVIEW RD,,40.02211,-83.001866,,,,
1494,INDOLES,INDIANOLA AVE & OLENTANGY ST,,40.020406,-83.001959,,,,
1495,INDARCS,INDIANOLA AVE & E ARCADIA AVE,,40.01759,-83.002128,,,,
1497,HUDSUME,E HUDSON ST & SUMMIT ST,,40.015099,-83.000871,,,,
1498,SUMCLIS,SUMMIT ST & CLINTON ST,,40.013156,-83.000335,,,,
1499,SUMMAYS,SUMMIT ST & E MAYNARD AVE,,40.010803,-83.000508,,,,
1500,SUMOAKS,SUMMIT ST & E OAKLAND AVE,,40.009073,-83.000625,,,,
1501,SUMNORS,SUMMIT ST & E NORTHWOOD AVE,,40.007247,-83.000755,,,,
1502,SUMLANS,SUMMIT ST & E LANE AVE,,40.006026,-83.00083,,,,
1503,SUM19TS,SUMMIT ST & E 19TH AVE,,40.003477,-83.001003,,,,
1504,SUM17TS,SUMMIT ST & E 17TH AVE,,40.001577,-83.001134,,,,
1505,SUM15TS,SUMMIT ST & E 15TH AVE,,39.999984,-83.001247,,,,
1506,SUM13TS,SUMMIT ST & E 13TH AVE,,39.997704,-83.001396,,,,
1507,SUMCHIS,SUMMIT ST & CHITTENDEN AVE,,39.995627,-83.00155,,,,
1510,SUM7THS,SUMMIT ST & E 7TH AVE,,39.990327,-83.001914,,,,
1511,SUM5THS,SUMMIT ST & E 5TH AVE,,39.986743,-83.002111,,,,
1513,SUM2NDS,SUMMIT ST & E 2ND AVE,,39.982272,-83.001281,,,,
1515,SUMWARS,SUMMIT ST & WARREN ST,,39.979082,-83.000633,,,,
1517,CLEPEGN,CLEVELAND AVE & PEGG RD,,40.044539,-82.958299,,,,
1518,5THDENW,W 5TH AVE & DENNISON AVE,,39.987267,-83.00813,,,,
1519,5THHIGW,W 5TH AVE & HIGHLAND ST,,39.987365,-83.011105,,,,
1520,5THNEIW,W 5TH AVE & NEIL AVE,,39.987437,-83.012906,,,,
1521,5THPENW,W 5TH AVE & PENNSYLVANIA AVE,,39.987501,-83.015042,,,,
1522,5THMICW,W 5TH AVE & MICHIGAN AVE,,39.987548,-83.016427,,,,
1523,5THPERW,W 5TH AVE & PERRY ST,,39.987637,-83.018613,,,,
1524,5THTISW,W 5TH AVE & TISDALE,,39.987737,-83.021212,,,,
1525,5THOLEW,W 5TH AVE & OLENTANGY RIVER RD,,39.987945,-83.02646,,,,
1527,5THHESW,W 5TH AVE & HESS ST,,39.988226,-83.032033,,,,
1528,5THGERW,W 5TH AVE & GERRARD AVE,,39.988273,-83.033001,,,,
1529,5THKENW,W 5TH AVE & KENNY RD,,39.988382,-83.035246,,,,
1530,5THDOTW,W 5TH AVE & DOTEN AVE,,39.988507,-83.037735,,,,
1531,5THNORTW,W 5TH AVE & NORTHWEST BLVD,,39.988646,-83.040543,,,,
1532,5THGRANW,W 5TH AVE & GRANDVIEW AVE,,39.988835,-83.044265,,,,
1533,5THFAIW,W 5TH AVE & FAIRVIEW AVE,,39.989,-83.047544,,,,
1535,5THASHW,W 5TH AVE & ASHLAND AVE,,39.989115,-83.050164,,,,
1536,5THWESW,W 5TH AVE & WESTWOOD AVE,,39.989209,-83.052682,,,,
1537,5THWYAW,W 5TH AVE & WYANDOTTE RD,,39.989322,-83.055638,,,,
1538,5THCAMW,W 5TH AVE & CAMBRIDGE BLVD,,39.98941,-83.057964,,,,
1540,ARLCHEN,ARLINGTON AVE & W CHELSEA RD,,39.991291,-83.060215,,,,
1541,ARLCAMN,ARLINGTON AVE & CAMBRIDGE BLVD,,39.99308,-83.060329,,,,
1543,ARLEDGN,ARLINGTON AVE & EDGEMONT RD,,39.9964,-83.060582,,,,
1544,ARLMALN,ARLINGTON AVE & N MALLWAY DR,,39.999061,-83.061587,,,,
1545,ARLTEWN,ARLINGTON AVE & TEWKSBURY RD,,40.001204,-83.063641,,,,
1546,ARLWICN,ARLINGTON AVE & WICKFORD RD,,40.00239,-83.0651,,,,
1547,ARLWESNW,ARLINGTON AVE & WESTOVER RD,,40.002832,-83.066434,,,,
1550,TRELANN,TREMONT RD & W LANE AVE,,40.007743,-83.070121,,,,
1551,TREWILN,TREMONT RD & WILSHIRE DR,,40.009985,-83.069818,,,,
1552,TRENORN,TREMONT RD & NORTHAM RD,,40.012231,-83.068749,,,,
1553,TREFARN,TREMONT RD & FARLEIGH RD,,40.014581,-83.066659,,,,
1554,TRERIDN,TREMONT RD & RIDGEVIEW RD,,40.015741,-83.06564,,,,
1555,TREINCN,TREMONT RD & INCHCLIFF RD,,40.017535,-83.064095,,,,
1556,TREZOLN,TREMONT RD & ZOLLINGER RD,,40.01886,-83.062923,,,,
1557,TRELANGN,TREMONT RD & LANGHAM RD,,40.020418,-83.061514,,,,
1558,RIDTREW,RIDGECLIFF RD & TREMONT RD,,40.022544,-83.060256,,,,
1559,RIDSOMW,RIDGECLIFF RD & SOMERFORD RD,,40.022698,-83.063413,,,,
1560,RIDCOLW,RIDGECLIFF RD & COLCHESTER RD,,40.02285,-83.066562,,,,
1574,RIDREDE,RIDGECLIFF RD & REDDING RD,,40.022872,-83.06905,,,,
1575,RIDCOLE,RIDGECLIFF RD & COLCHESTER RD,,40.022742,-83.066319,,,,
1576,RIDSOME,RIDGECLIFF RD & SOMERFORD RD,,40.022636,-83.06371,,,,
1583,VALTASW,VALLEY QUAIL BLVD N & TASSEL CT,,40.090368,-82.895497,,,,
1584,VALPURW,VALLEY QUAIL N & PURPLEFINCH CT,,40.090267,-82.897915,,,,
1585,REDNORS,REDDING RD & NORTHAM RD,,40.012166,-83.070187,,,,
1586,4THTOWN,S 4TH ST & E TOWN ST,,39.958973,-82.995428,,,,
1587,TREONAS,TREMONT RD & ONANDAGA DR,,40.00959,-83.069997,,,,
1588,TRELANS,TREMONT RD & W LANE AVE,,40.007581,-83.070226,,,,
1589,ARLTRES,ARLINGTON AVE & TREMONT RD,,40.005044,-83.069108,,,,
1591,ARLWESSW,ARLINGTON AVE & WESTOVER RD,,40.002592,-83.066111,,,,
1592,ARLTEWS,ARLINGTON AVE & TEWKSBURY RD,,40.001287,-83.063842,,,,
1593,ARLGUIS,ARLINGTON AVE & GUILFORD RD,,39.999909,-83.062624,,,,
1594,ARLWALS,ARLINGTON AVE & WALTHAM RD,,39.997667,-83.061011,,,,
1596,ARLCAMS,ARLINGTON AVE & CAMBRIDGE BLVD,,39.993458,-83.060494,,,,
1597,ARLCHES,ARLINGTON AVE & W CHELSEA RD,,39.991415,-83.060332,,,,
1598,ARL5THS,ARLINGTON AVE & W 5TH AVE,,39.989195,-83.060188,,,,
1599,5THCAME,W 5TH AVE & CAMBRIDGE BLVD,,39.989314,-83.057926,,,,
1600,5THWYAE,W 5TH AVE & WYANDOTTE RD,,39.989221,-83.055496,,,,
1601,5THWESE,W 5TH AVE & WESTWOOD AVE,,39.989112,-83.052857,,,,
1602,5THASHE,W 5TH AVE & ASHLAND AVE,,39.989011,-83.050358,,,,
1604,5THFAIE,W 5TH AVE & FAIRVIEW AVE,,39.98888,-83.047631,,,,
1605,5THGRANE,W 5TH AVE & GRANDVIEW AVE,,39.988741,-83.044634,,,,
1606,5THNORTE,W 5TH AVE & NORTHWEST BLVD,,39.988566,-83.04114,,,,
1607,5THDOTE,W 5TH AVE & DOTEN AVE,,39.988411,-83.038096,,,,
1608,5THEASE,W 5TH AVE & EASTVIEW AVE,,39.9883,-83.03581,,,,
1609,5THHOLE,W 5TH AVE & HOLLY AVE,,39.988186,-83.033569,,,,
1610,5THDELE,W 5TH AVE & DELASHMUT AVE,,39.988046,-83.03066,,,,
1611,5THEDGE,W 5TH AVE & EDGEHILL RD,,39.987948,-83.028914,,,,
1612,5THOLEE,W 5TH AVE & OLENTANGY RIVER RD,W 5TH AVE & OLENTANGY RIV RD,39.987801,-83.025864,,,,
1614,5THPERE,W 5TH AVE & PERRY ST,,39.987561,-83.019056,,,,
1615,5THMICE,W 5TH AVE & MICHIGAN AVE,,39.987476,-83.016839,,,,
1616,5THPENE,W 5TH AVE & PENNSYLVANIA AVE,,39.987419,-83.015428,,,,
1618,5THHIGE,W 5TH AVE & HIGHLAND ST,,39.98725,-83.011103,,,,
1619,5THDENE,W 5TH AVE & DENNISON AVE,,39.987153,-83.008523,,,,
1620,CLEFUJN,CLEVELAND AVE & FUJI DR,,40.088781,-82.950665,,,,
1625,MARHAME,MARTIN LUTHER KING & HAMILTON AVE,,39.968762,-82.981551,,,,
1626,MARSTCNE,MARTIN LUTHER KING & ST CLAIR AVE,,39.970441,-82.980761,,,,
1627,MOUGARE,MOUNT VERNON AVE & N GARFIELD AVE,,39.970955,-82.979411,,,,
1628,MOU17TE,MOUNT VERNON AVE & N 17TH ST,,39.971399,-82.977208,,,,
1629,MOU18TE,MOUNT VERNON AVE & N 18TH ST,,39.971639,-82.975812,,,,
1630,MOU20TE,MOUNT VERNON AVE & N 20TH ST,,39.972044,-82.973551,,,,
1631,MOU22NE,MOUNT VERNON AVE & N 22ND ST,,39.972486,-82.971179,,,,
1632,MOUCHAE,MOUNT VERNON AVE & N CHAMPION AVE,,39.972994,-82.968266,,,,
1633,MOUWINE,MOUNT VERNON AVE & WINNER AVE,,39.973422,-82.965905,,,,
1634,MOUBURE,MOUNT VERNON AVE & BURT ST,,39.973829,-82.963424,,,,
1635,MOUTAYE,MOUNT VERNON AVE & TAYLOR AVE,,39.974166,-82.961356,,,,
1637,NELMARGS,N NELSON RD & MARGARET AVE,,39.984823,-82.941706,,,,
1638,VALCARS,VALLEY QUAIL BLVD S & CARNATION DR,,40.087931,-82.901916,,,,
1639,VALSUNE,VALLEY QUAIL BLVD S & SUNLAWN DR,,40.086091,-82.897996,,,,
1640,5THLEONE,E 5TH AVE & LEONARD AVE,,39.984987,-82.956336,,,,
1642,5THSUNE,E 5TH AVE & SUNBURY RD,,39.98585,-82.946715,,,,
1643,5THWALE,E 5TH AVE & WALCUTT AVE,,39.985734,-82.943531,,,,
1644,MAIPEAE,E MAIN ST & S PEARL ST,,39.956245,-82.998472,,,,
1645,MAI4THE,E MAIN ST & S 4TH ST,,39.956609,-82.994657,,,,
1646,5THCASE,E 5TH AVE & N CASSADY AVE,,39.985015,-82.931134,,,,
1647,5THMORE,E 5TH AVE & MORRIS AVE,,39.984917,-82.928377,,,,
1648,5THALTE,E 5TH AVE & ALTON AVE,,39.984885,-82.926497,,,,
1649,5THRARE,E 5TH AVE & RARIG AVE,,39.984808,-82.92403,,,,
1650,HOLMAIN,HOLTZMAN AVE & E MAIN ST,,39.957765,-82.945599,,,,
1652,CLEOLDS,S CLEVELAND AVE & OLD COACH RD,,40.119894,-82.948615,,,,
1653,CLE340S,340 S CLEVELAND AVE,,40.116707,-82.948828,,,,
1654,7THSTEE,E 7TH AVE & STELZER RD,,39.98622,-82.913699,,,,
1655,OSB5THS,OSBORN AVE & E 5TH AVE,,39.984802,-82.912771,,,,
1657,5THKRUW,E 5TH AVE & KRUMM AVE,,39.984723,-82.917568,,,,
1658,5THSTERW,E 5TH AVE & STERLING AVE,,39.9848,-82.92061,,,,
1659,5THRARW,E 5TH AVE & RARIG AVE,,39.984872,-82.92345,,,,
1660,5THALTW,E 5TH AVE & ALTON AVE,,39.985008,-82.926679,,,,
1661,5THMORW,E 5TH AVE & MORRIS AVE,,39.985086,-82.929114,,,,
1662,5THCASW,E 5TH AVE & N CASSADY AVE,,39.985168,-82.931295,,,,
1664,5THNELW,E 5TH AVE & N NELSON RD,,39.985787,-82.941799,,,,
1665,5THWALW,E 5TH AVE & WALCUTT AVE,,39.985861,-82.944158,,,,
1666,5TH2187W,2187 E 5TH AVE,,39.98593,-82.945932,,,,
1667,5THBREW,E 5TH AVE & BRENTNELL AVE,,39.986123,-82.950785,,,,
1668,5THLEONW,E 5TH AVE & LEONARD AVE,,39.986238,-82.95283,,,,
1673,MOUTAYW,MOUNT VERNON AVE & TAYLOR AVE,,39.974224,-82.961594,,,,
1674,MOUGRAHW,MOUNT VERNON AVE & GRAHAM ST,,39.973811,-82.96405,,,,
1675,MOUCHAW,MOUNT VERNON AVE & N CHAMPION AVE,,39.973063,-82.968466,,,,
1676,MOU22NW,MOUNT VERNON AVE & N 22ND ST,,39.972568,-82.971234,,,,
1678,MOUMIAW,MOUNT VERNON AVE & MIAMI AVE,,39.972024,-82.974453,,,,
1679,MOU17TW,MOUNT VERNON AVE & N 17TH ST,,39.971622,-82.97673,,,,
1680,MOUGARW,MOUNT VERNON AVE & N GARFIELD AVE,,39.971117,-82.97944,,,,
1681,MOCCENW,MOCK RD & CENTURY DR,,40.011426,-82.946647,,,,
1682,MARSTCW,MARTIN LUTHER KING & ST CLAIR AVE,,39.970842,-82.980551,,,,
1683,SPRHAMW,E SPRING ST & HAMILTON AVE,,39.9688,-82.982306,,,,
1684,CLECOPS,S CLEVELAND AVE & COPELAND MILL RD,,40.11264,-82.949147,,,,
1685,CLESCHS,S CLEVELAND AVE & SCHROCK RD,,40.110874,-82.949279,,,,
1686,CLEHOMS,CLEVELAND AVE & HOME ACRE DR,,40.098294,-82.950155,,,,
1687,BUTHIGW,BUTTLES AVE & N HIGH ST,,39.977222,-83.004028,,,,
1689,BUTDENW,BUTTLES AVE & DENNISON AVE,,39.977425,-83.008843,,,,
1691,NEIHUBN,NEIL AVE & W HUBBARD AVE,,39.978297,-83.01122,,,,
1692,NEI1STN,NEIL AVE & W 1ST AVE,,39.980278,-83.011604,,,,
1693,NEI3RDN,NEIL AVE & W 3RD AVE,,39.98355,-83.01225,,,,
1694,NEI4THN,NEIL AVE & W 4TH AVE,,39.985367,-83.012615,,,,
1695,NEI5THN,NEIL AVE & W 5TH AVE,,39.98716,-83.012959,,,,
1700,CAN10TN,CANNON DR & W 10TH AVE,,39.99387,-83.021035,,,,
1702,NEIOPPS,NEIL AVE & W 11TH AVE,,39.995308,-83.014715,,,,
1706,NEI8THN,NEIL AVE & W 8TH AVE,,39.992315,-83.013973,,,,
1707,NEI7THS,NEIL AVE & W 7TH AVE,,39.989553,-83.013617,,,,
1708,NEI5THS,NEIL AVE & W 5TH AVE,,39.987521,-83.013213,,,,
1709,NEI4THS,NEIL AVE & W 4TH AVE,,39.985749,-83.012868,,,,
1710,NEI2NDS,NEIL AVE & W 2ND AVE,,39.982199,-83.012174,,,,
1711,NEIWILS,NEIL AVE & WILBER AVE,,39.979517,-83.011644,,,,
1712,KIMMERE,KIMBERLY PKWY N & MERCEDES LN,,39.926107,-82.886452,,,,
1713,BUTDENE,BUTTLES AVE & DENNISON AVE,,39.977334,-83.009299,,,,
1715,BUTHIGE,BUTTLES AVE & N HIGH ST,,39.977137,-83.003802,,,,
1717,11TINDE,E 11TH AVE & INDIANOLA AVE,,39.994542,-83.003148,,,,
1719,11T4THE,E 11TH AVE & N 4TH ST,,39.994356,-82.999383,,,,
1722,11TESSE,E 11TH AVE & ESSEX AVE,,39.993858,-82.987163,,,,
1724,HAM17TN,HAMILTON AVE & E 17TH AVE,,40.000819,-82.979875,,,,
1729,HAMDUXN,HAMILTON AVE & DUXBERRY AVE,,40.009025,-82.979282,,,,
1730,HAMCLIN,HAMILTON AVE & CLINTON ST,,40.011973,-82.979095,,,,
1732,MCGHUDN,MCGUFFEY RD & E HUDSON ST,,40.014765,-82.981373,,,,
1733,MCGBRIN,MCGUFFEY RD & BRIARWOOD AVE,,40.016916,-82.98141,,,,
1734,MCGOPPN,MCGUFFEY RD & GENESSEE AVE,,40.019161,-82.98144,,,,
1735,MCGABEN,MCGUFFEY RD & ABERDEEN AVE,,40.021294,-82.981468,,,,
1736,MCGWEBN,MCGUFFEY RD & E WEBER RD,,40.023247,-82.981394,,,,
1737,MCGDELN,MCGUFFEY RD & DELNO AVE,,40.025762,-82.981141,,,,
1738,MCGWELN,MCGUFFEY RD & WELDON AVE,,40.027549,-82.980956,,,,
1739,MCGNORN,MCGUFFEY RD & E NORTH BROADWAY,,40.030096,-82.980692,,,,
1740,MCGOAKN,MCGUFFEY RD & OAKLAND PARK AVE,,40.031698,-82.980558,,,,
1742,OAKATWW,OAKLAND PARK AVE & ATWOOD TERRACE,,40.032301,-82.983601,,,,
1744,OAKMAIW,OAKLAND PARK AVE & MAIZE RD,,40.032569,-82.989179,,,,
1745,MAIURAN,MAIZE RD & URANA AVE,,40.035602,-82.989254,,,,
1748,MAINORTN,MAIZE RD & NORTHRIDGE RD,,40.041651,-82.988786,,,,
1750,OAKKARW,OAKLAND PARK AVE & KARL RD,,40.032031,-82.977934,,,,
1751,KARHUYN,KARL RD & HUY RD,,40.035554,-82.977854,,,,
1752,KARPAUN,KARL RD & PAULINE AVE,,40.037764,-82.977656,,,,
1753,KARACTN,KARL RD & ACTON RD,,40.039681,-82.977487,,,,
1755,GEODELN,GEORGESVILLE RD & INDUSTRIAL MILE,,39.944885,-83.11136,,,,
1756,5THARLE,W 5TH AVE & ARLINGTON AVE,,39.98938,-83.05984,,,,
1757,GRASTAS,S GRANT AVE & E STATE ST,,39.96139,-82.990774,,,,
1759,MAINORN,MAIZE RD & NORRIS DR,,40.044457,-82.988556,,,,
1760,MAICOON,MAIZE RD & E COOKE RD,,40.047549,-82.988295,,,,
1761,MAIHILN,MAIZE RD & HILLSDALE DR,,40.050866,-82.988019,,,,
1763,MAIGARN,MAIZE RD & GARDEN RD,,40.054629,-82.987727,,,,
1764,MAISHAN,MAIZE RD & SHANLEY DR,,40.056704,-82.987549,,,,
1767,MAIMORS,MAIZE RD & MORSE RD,,40.060971,-82.987355,,,,
1771,KARNORN,KARL RD & NORTHLAND PARK AVE,,40.057752,-82.976375,,,,
1773,STAHUBN,S STATE ST & HUBER VILLAGE BLVD,,40.106365,-82.924724,,,,
1780,NAG5THE,E NAGHTEN ST & N 5TH ST,,39.968716,-82.995499,,,,
1781,MAIGARS,MAIZE RD & GARDEN RD,,40.054718,-82.987871,,,,
1782,MAICARBS,MAIZE RD & CARBONE DR,,40.051939,-82.988066,,,,
1784,MAICOOS,MAIZE RD & E COOKE RD,,40.047931,-82.98841,,,,
1785,MAINORS,MAIZE RD & NORRIS DR,,40.044493,-82.988674,,,,
1789,MAIZEBS,MAIZE RD & ZEBULON AVE,,40.03884,-82.989153,,,,
1791,MAIURAS,MAIZE RD & URANA AVE,,40.035218,-82.98942,,,,
1792,MAIDUNS,MAIZE RD & DUNEDIN,MAIZE RD & DUNEDIN RD,40.033292,-82.98957,,,,
1793,OAKOSCE,OAKLAND PARK AVE & OSCEOLA DR,,40.0324,-82.987982,,,,
1795,OAKATWE,OAKLAND PARK AVE & ATWOOD TERRACE,,40.032218,-82.98418,,,,
1797,MOUHIGW,E MOUND ST & S HIGH ST,,39.954911,-82.999032,,,,
1803,KARACTS,KARL RD & ACTON RD,,40.039341,-82.977653,,,,
1804,KARCARS,KARL RD & CAROLYN AVE,,40.037042,-82.977856,,,,
1805,KARURAS,KARL RD & URANA AVE,,40.034682,-82.978058,,,,
1806,KAROAKS,KARL RD & OAKLAND PARK AVE,,40.032364,-82.97824,,,,
1807,MCGOAKS,MCGUFFEY RD & OAKLAND PARK AVE,,40.031448,-82.980676,,,,
1808,MCGNORS,MCGUFFEY RD & E NORTH BROADWAY,,40.030041,-82.980835,,,,
1809,MCGWELS,MCGUFFEY RD & WELDON AVE,,40.0278,-82.981068,,,,
1810,MCGCOMS,MCGUFFEY RD & E COMO AVE,,40.02569,-82.981287,,,,
1811,MCGWEBS,MCGUFFEY RD & E WEBER RD,,40.023636,-82.981499,,,,
1812,MCGABES,MCGUFFEY RD & ABERDEEN AVE,,40.021555,-82.981609,,,,
1813,MCGGENS,MCGUFFEY RD & GENESSEE AVE,,40.019489,-82.981581,,,,
1814,MCGBRIS,MCGUFFEY RD & BRIARWOOD AVE,,40.017175,-82.981556,,,,
1815,LORMCGW,LORETTA AVE & MCGUFFEY RD,,40.015225,-82.981242,,,,
1816,MCGCLIS,MCGUFFEY RD & CLINTON ST,,40.012326,-82.981572,,,,
1818,HAMDUXS,HAMILTON AVE & DUXBERRY AVE,,40.008863,-82.979455,,,,
1820,HAM21SS,HAMILTON AVE & E 21ST AVE,,40.004072,-82.979768,,,,
1821,STAHIAN,S STATE ST & HIAWATHA AVE,,40.1179,-82.928538,,,,
1825,11TESSW,E 11TH AVE & ESSEX AVE,,39.994012,-82.987679,,,,
1827,KAROAKN,KARL RD & OAKLAND PARK AVE,,40.032306,-82.978124,,,,
1828,STAKINS,S STATE ST & KING ARTHUR BLVD,,40.107244,-82.925079,,,,
1829,11TGRAW,E 11TH AVE & N GRANT AVE,,39.994308,-82.995537,,,,
1832,CHISUMW,CHITTENDEN AVE & SUMMIT ST,,39.99552,-83.001278,,,,
1833,CHIINDW,CHITTENDEN AVE & INDIANOLA AVE,,39.995636,-83.003855,,,,
1835,CLELEHS,CLEVELAND AVE & LEHNER RD,,40.052279,-82.953688,,,,
1836,CLEORMS,CLEVELAND AVE & ORMOND AVE,,40.046914,-82.956311,,,,
1842,BRELEON,BRENTNELL AVE & LEONARD AVE,,39.988181,-82.950104,,,,
1843,BREWOON,BRENTNELL AVE & WOODWARD AVE,,39.991938,-82.949824,,,,
1844,BRE1257N,1257 BRENTNELL AVE,,39.993947,-82.949665,,,,
1845,BRELISN,BRENTNELL AVE & LISA DR,,39.996483,-82.949456,,,,
1847,BREHOLN,BRENTNELL AVE & HOLT AVE,,39.999967,-82.949173,,,,
1849,BREARGN,BRENTNELL AVE & ARGYLE DR,,40.004023,-82.948681,,,,
1850,BREMIDN,BRENTNELL AVE & MIDDLEHURST DR,,40.006189,-82.948205,,,,
1852,DELBREE,DELAVAN DR & BRENTNELL AVE,,40.010101,-82.947618,,,,
1853,CAS10TS,N CASSADY AVE & E 10TH AVE,,39.989626,-82.930662,,,,
1854,DEL236E,2367 DELAVAN DR,,40.009437,-82.945377,,,,
1857,BARBRON,BAR HARBOR RD & BROCTON RD,,40.010446,-82.941742,,,,
1859,BREDAWN,BRENTNELL AVE & DAWNLIGHT AVE,,40.012122,-82.947678,,,,
1860,BREMARN,BRENTNELL AVE & MARCIA DR,,40.014678,-82.947925,,,,
1861,MYRBREW,MYRTLE AVE & BRENTNELL AVE,,40.016387,-82.948213,,,,
1866,CHEMARW,CHELFORD DR & MARVIEW RD,,40.026558,-82.927094,,,,
1869,HUDDELW,E HUDSON ST & DELBERT RD,,40.013371,-82.959122,,,,
1871,CHEMARE,CHELFORD DR & MARVIEW RD,,40.026442,-82.926405,,,,
1875,MAIBRIW,E MAIN ST & BRIARCLIFF RD,,39.955191,-82.810941,,,,
1879,LIVQUAW,E LIVINGSTON AVE & QUARRY RIDGE DR,,39.943153,-82.841426,,,,
1880,GROCLASE,GROVEPORT RD & CLARFIELD AVE,,39.899626,-82.963207,,,,
1881,GROCHISE,GROVEPORT RD & CHILLICOTHE ST,,39.879707,-82.950877,,,,
1883,BREMYRS,BRENTNELL AVE & MYRTLE AVE,,40.016027,-82.947893,,,,
1884,BREMARS,BRENTNELL AVE & MARCIA DR,,40.014159,-82.948257,,,,
1885,BREMOCS,BRENTNELL AVE & MOCK RD,,40.012089,-82.947786,,,,
1887,BARBROS,BAR HARBOR RD & BROCTON RD,,40.010356,-82.942072,,,,
1888,DELBARW,DELAVAN DR & BAR HARBOR RD,,40.009416,-82.943188,,,,
1890,DEL235W,2358 DELAVAN DR,,40.009537,-82.945737,,,,
1892,BREDELS,BRENTNELL AVE & DELAVAN DR,,40.009921,-82.948037,,,,
1893,BREMIDS,BRENTNELL AVE & MIDDLEHURST DR,,40.006493,-82.948324,,,,
1894,BREARGS,BRENTNELL AVE & ARGYLE DR,,40.004002,-82.948864,,,,
1896,BREHOLS,BRENTNELL AVE & HOLT AVE,,40.00024,-82.949334,,,,
1897,BREORIS,BRENTNELL AVE & ORIOLE PL,,39.99766,-82.949488,,,,
1899,BRE125S,1257 BRENTNELL AVE,,39.994016,-82.949812,,,,
1900,BREWOOS,BRENTNELL AVE & WOODWARD AVE,,39.992036,-82.949948,,,,
1901,BRELEOS,BRENTNELL AVE & LEONARD AVE,,39.988061,-82.95025,,,,
1904,CALBOLW,CALDWELL PL & BOLIVAR ST,,39.976752,-82.975214,,,,
1905,CALOLDS,CALDWELL PL & LEONARD AVE,,39.975437,-82.97935,,,,
1906,NORBRIW,NORTHTOWNE BLVD & BRITTANY RD,,40.068417,-82.961813,,,,
1907,GROBIXSE,GROVEPORT RD & BIXBY RD,,39.865878,-82.924101,,,,
1908,GROSWISE,GROVEPORT RD & SWISHER RD,,39.861368,-82.914285,,,,
1910,LIV4THE,E LIVINGSTON AVE & S 4TH ST,,39.952628,-82.994158,,,,
1911,LIV6THE,E LIVINGSTON AVE & S 6TH ST,,39.952464,-82.990578,,,,
1912,LIVGRANE,E LIVINGSTON AVE & S GRANT AVE,,39.95238,-82.988663,,,,
1913,LIVKELW,E LIVINGSTON AVE & KELTON AVE,,39.949246,-82.959852,,,,
1914,LIVPARE,E LIVINGSTON AVE & PARSONS AVE,,39.95211,-82.98277,,,,
1915,LIVANNE,E LIVINGSTON AVE & ANN ST,,39.951533,-82.980465,,,,
1916,LIV18TE,E LIVINGSTON AVE & S 18TH ST,,39.950876,-82.978123,,,,
1917,LIVCARE,E LIVINGSTON AVE & CARPENTER ST,,39.949987,-82.97577,,,,
1918,LIV22NE,E LIVINGSTON AVE & S 22ND ST,,39.949746,-82.972636,,,,
1920,LIVCHAE,E LIVINGSTON AVE & S CHAMPION AVE,,39.949637,-82.970376,,,,
1921,LIVWILE,E LIVINGSTON AVE & WILSON AVE,,39.949499,-82.967531,,,,
1922,LIVSTUE,E LIVINGSTON AVE & STUDER AVE,,39.949341,-82.964215,,,,
1923,GROSALSE,GROVEPORT RD & SALTZGABER RD,,39.858481,-82.908379,,,,
1925,LIVKELE,E LIVINGSTON AVE & KELTON AVE,,39.949081,-82.958999,,,,
1926,CLEMAINN,S CLEVELAND AVE & W MAIN ST,,40.123546,-82.948111,,,,
1928,LIVBULE,E LIVINGSTON AVE & BULEN AVE,,39.948717,-82.951593,,,,
1929,LIVRHOE,E LIVINGSTON AVE & RHOADS AVE,,39.948615,-82.94953,,,,
1930,LIVMEME,E LIVINGSTON AVE & MEMORY LN N,,39.948469,-82.946794,,,,
1933,LIVCOLE,E LIVINGSTON AVE & COLLEGE AVE,,39.947926,-82.936419,,,,
1935,LIVCASE,E LIVINGSTON AVE & S CASSINGHAM RD,,39.94776,-82.93288,,,,
1937,LIVROOE,E LIVINGSTON AVE & S ROOSEVELT AVE,,39.94752,-82.928506,,,,
1940,LIVBROE,E LIVINGSTON AVE & BROWNING AVE,,39.947193,-82.922477,,,,
1941,LIVWELE,E LIVINGSTON AVE & WELLESLEY RD,,39.947053,-82.919713,,,,
1942,LIVKELE,E LIVINGSTON AVE & S KELLNER RD,,39.946922,-82.917413,,,,
1943,LIVJAME,E LIVINGSTON AVE & S JAMES RD,,39.946781,-82.914972,,,,
1945,LIVZETE,E LIVINGSTON AVE & ZETTLER RD,,39.946517,-82.910144,,,,
1946,LIVBARE,E LIVINGSTON AVE & BARNETT RD,,39.946312,-82.906059,,,,
1947,LIVCUNE,E LIVINGSTON AVE & CUNARD RD,,39.94606,-82.901894,,,,
1948,LIVCOUE,E LIVINGSTON AVE & COURTRIGHT RD,,39.945771,-82.896418,,,,
1949,LIVBEEE,E LIVINGSTON AVE & BEECHWOOD RD,,39.945653,-82.894211,,,,
1950,LIVVILE,E LIVINGSTON AVE & VILARDO LN,,39.945503,-82.89169,,,,
1951,LIVYEAE,E LIVINGSTON AVE & S YEARLING RD,,39.94529,-82.887862,,,,
1952,LIVBURE,E LIVINGSTON AVE & BURLINGTON AVE,,39.945022,-82.883296,,,,
1953,LIVGRAE,E LIVINGSTON AVE & GRATTAN RD,,39.944832,-82.879774,,,,
1954,LIVHAME,E LIVINGSTON AVE & S HAMILTON RD,,39.944647,-82.876709,,,,
1955,LIVSIME,E LIVINGSTON AVE & SIMPSON DR,,39.944448,-82.873164,,,,
1956,LIVSHAE,E LIVINGSTON AVE & SHADY LANE RD,,39.944362,-82.871636,,,,
1957,COULIVN,COUNTRY CLUB RD & E LIVINGSTON AVE,,39.94484,-82.86799,,,,
1958,COUFOLN,COUNTRY CLUB RD & FOLGER DR,,39.947662,-82.867273,,,,
1960,COUMCAN,COUNTRY CLUB RD & MCALLISTER AVE,,39.952953,-82.867238,,,,
1961,MCALITW,MCALLISTER AVE & LITTLE PLUM LN,,39.953302,-82.869595,,,,
1962,MAISHAE,E MAIN ST & SHADY LANE RD,,39.955218,-82.870853,,,,
1963,MAICOUE,E MAIN ST & COUNTRY CLUB RD,,39.955121,-82.867501,,,,
1967,COU127S,1273 COUNTRY CLUB RD,,39.949939,-82.867142,,,,
1968,COUBEN1S,COUNTRY CLUB RD & N BENSON DR,,39.947523,-82.867385,,,,
1969,COUBEN2S,COUNTRY CLUB RD & S BENSON DR,,39.945236,-82.86805,,,,
1970,LIVCOUNW,E LIVINGSTON AVE & COUNTRY CLUB RD,,39.944344,-82.868668,,,,
1971,LIVSHAW,E LIVINGSTON AVE & SHADY LANE RD,,39.944474,-82.871041,,,,
1973,LIVHAMW,E LIVINGSTON AVE & S HAMILTON RD,,39.944898,-82.878506,,,,
1975,LIVWESW,E LIVINGSTON AVE & WESTPHAL AVE,,39.945181,-82.883452,,,,
1976,LIVYEAW,E LIVINGSTON AVE & S YEARLING RD,,39.945396,-82.887141,,,,
1977,LIVELDW,E LIVINGSTON AVE & ELDERWOOD AVE,,39.94565,-82.891513,,,,
1978,LIVBEEW,E LIVINGSTON AVE & BEECHWOOD RD,,39.94583,-82.894819,,,,
1979,LIVCOURW,E LIVINGSTON AVE & COURTRIGHT RD,,39.945984,-82.897582,,,,
1980,LIVRANW,E LIVINGSTON AVE & RAND AVE,,39.946214,-82.901942,,,,
1983,LIVBARW,E LIVINGSTON AVE & BARNETT RD,,39.946455,-82.906055,,,,
1984,LIVHAMW,E LIVINGSTON AVE & S HAMPTON RD,,39.946755,-82.911858,,,,
1985,LIVJAMW,E LIVINGSTON AVE & S JAMES RD,,39.946932,-82.915257,,,,
1986,LIVKENW,E LIVINGSTON AVE & KENILWORTH PL,,39.947098,-82.918575,,,,
1990,LIVVERW,E LIVINGSTON AVE & VERNON RD,,39.947688,-82.929326,,,,
1991,LIVMONW,E LIVINGSTON AVE & MONTROSE AVE,,39.947838,-82.932096,,,,
1992,FIS1247W,1247 FISHINGER RD,,40.023663,-83.045965,,,,
1994,LIVCOLW,E LIVINGSTON AVE & COLLEGE AVE,,39.948101,-82.936901,,,,
1995,KIMBURE,KIMBERLY PKWY N & BURGANDY LN,,39.922975,-82.893296,,,,
1996,LIVMAYW,E LIVINGSTON AVE & MAYFIELD PL,,39.948295,-82.941002,,,,
1997,REF2NDE,REFUGEE RD & EASTLAND 4,REFUGEE RD & FOUR EASTLAND DR,39.915688,-82.885234,,,,
1998,LIVRHOW,E LIVINGSTON AVE & RHOADS AVE,,39.948691,-82.948918,,,,
1999,LIVFAIW,E LIVINGSTON AVE & FAIRWOOD AVE,,39.948928,-82.953394,,,,
2001,GROLITSE,GROVEPORT RD & LITHOPOLIS RD,,39.848867,-82.866038,,,,
2002,LIVLILW,E LIVINGSTON AVE & LILLEY AVE,,39.949148,-82.957908,,,,
2003,GROLITWE,GROVEPORT RD & LITHOPOLIS RD,,39.848935,-82.865203,,,,
2005,LIVLOCW,E LIVINGSTON AVE & LOCKBOURNE RD,,39.949392,-82.962846,,,,
2006,LIVWILW,E LIVINGSTON AVE & WILSON AVE,,39.949613,-82.967516,,,,
2008,LIVCHAW,E LIVINGSTON AVE & S CHAMPION AVE,,39.949748,-82.970345,,,,
2009,LIVOHIW,E LIVINGSTON AVE & S OHIO AVE,,39.949822,-82.971857,,,,
2012,LIVANNW,E LIVINGSTON AVE & ANN ST,,39.951749,-82.980546,,,,
2013,LIVPARW,E LIVINGSTON AVE & PARSONS AVE,,39.95232,-82.983164,,,,
2015,LIVGRANW,E LIVINGSTON AVE & S GRANT AVE,,39.952509,-82.988757,,,,
2016,LIVMOHW,E LIVINGSTON AVE & MOHAWK ST,,39.952709,-82.99312,,,,
2017,FUL4THW,E FULTON ST & S 4TH ST,,39.953977,-82.995214,,,,
2018,FULHIGW,E FULTON ST & S HIGH ST,,39.953592,-82.998468,,,,
2019,MAIFROW,MAIN ST & FRONT ST,,39.851311,-82.882558,,,,
2020,MAIHENNW,MAIN ST & HENDRON RD,,39.854365,-82.896041,,,,
2021,GROSWINW,GROVEPORT RD & SWISHER RD,,39.861881,-82.915029,,,,
2022,GROBIXNW,GROVEPORT RD & BIXBY RD,,39.865985,-82.924157,,,,
2023,OAKGRANE,OAK ST & S GRANT AVE,,39.961942,-82.990466,,,,
2024,OAK9THE,OAK ST & S 9TH ST,,39.962182,-82.988768,,,,
2025,OAKWASE,OAK ST & S WASHINGTON AVE,,39.962331,-82.98722,,,,
2026,OAKLESE,OAK ST & LESTER DR,,39.962752,-82.983762,,,,
2027,OAKPARE,OAK ST & PARSONS AVE,,39.963107,-82.981065,,,,
2028,OAKMONE,OAK ST & S MONROE AVE,,39.963,-82.978499,,,,
2029,OAK18TE,OAK ST & S 18TH ST,,39.962874,-82.976117,,,,
2030,OAK21SE,OAK ST & S 21ST ST,,39.962727,-82.972345,,,,
2032,OAKOHIE,OAK ST & S OHIO AVE,,39.962663,-82.970792,,,,
2033,OAKCHAE,OAK ST & S CHAMPION AVE,,39.962565,-82.968698,,,,
2034,OAKWILE,OAK ST & WILSON AVE,,39.962491,-82.966482,,,,
2035,OAKLATE,OAK ST & LATTA AVE,,39.962377,-82.963441,,,,
2036,BRYRHOW,BRYDEN RD & RHOADS AVE,,39.960125,-82.949884,,,,
2037,OAKMILE,OAK ST & MILLER AVE,,39.962337,-82.96053,,,,
2038,OAKKELE,OAK ST & KELTON AVE,,39.9623,-82.95803,,,,
2039,OAKMORE,OAK ST & MORRISON AVE,,39.962188,-82.954456,,,,
2040,FAIFRAS,FAIRWOOD AVE & FRANKLIN AVE,,39.961297,-82.952624,,,,
2041,BRYFAIW,BRYDEN RD & FAIRWOOD AVE,,39.960189,-82.952495,,,,
2043,OAKFAIW,OAK ST & FAIRWOOD AVE,,39.962182,-82.952865,,,,
2044,OAKMORW,OAK ST & MORRISON AVE,,39.962294,-82.95506,,,,
2045,OAKKELW,OAK ST & KELTON AVE,,39.962395,-82.958808,,,,
2046,OAKMILW,OAK ST & MILLER AVE,,39.962448,-82.960713,,,,
2047,OAKLATW,OAK ST & LATTA AVE,,39.962504,-82.963168,,,,
2048,OAKWILW,OAK ST & WILSON AVE,,39.962598,-82.966559,,,,
2049,OAKCHAW,OAK ST & S CHAMPION AVE,,39.962674,-82.968841,,,,
2050,OAKOHIW,OAK ST & S OHIO AVE,,39.962775,-82.970942,,,,
2052,OAKHOFWF,OAK ST & HOFFMAN AVE,,39.962924,-82.974766,,,,
2053,OAKDOUW,OAK ST & S DOUGLAS ST,,39.96305,-82.977833,,,,
2054,OAKGARW,OAK ST & S GARFIELD AVE,,39.963165,-82.980719,,,,
2055,TOWWASW,E TOWN ST & S WASHINGTON AVE,,39.9604,-82.986756,,,,
2056,OAKLESW,OAK ST & LESTER DR,,39.962858,-82.9837,,,,
2057,OAKWASW,OAK ST & S WASHINGTON AVE,,39.962559,-82.986373,,,,
2058,OAK9THW,OAK ST & S 9TH ST,,39.962324,-82.988235,,,,
2059,OAKGRANW,OAK ST & S GRANT AVE,,39.96209,-82.990342,,,,
2061,GODBETN,GODOWN RD & BETHEL RD,,40.06434,-83.056819,,,,
2063,LANNORW,W LANE AVE & NORTH STAR RD,,40.007019,-83.04875,,,,
2065,TOWGRAE,E TOWN ST & S GRANT AVE,,39.959899,-82.989878,,,,
2066,TOWWASE,E TOWN ST & S WASHINGTON AVE,,39.960286,-82.986557,,,,
2067,TOWLESE,E TOWN ST & LESTER DR,,39.96061,-82.983604,,,,
2068,BRYPARE,BRYDEN RD & PARSONS AVE,,39.960597,-82.981402,,,,
2069,BRYMONE,BRYDEN RD & S MONROE AVE,,39.96055,-82.978672,,,,
2070,BRY18TE,BRYDEN RD & S 18TH ST,,39.960503,-82.975626,,,,
2071,BRY21SE,BRYDEN RD & S 21ST ST,,39.960441,-82.972428,,,,
2072,BRYOHIE,BRYDEN RD & S OHIO AVE,,39.960411,-82.970369,,,,
2073,BRYCHAE,BRYDEN RD & S CHAMPION AVE,,39.960389,-82.968982,,,,
2074,BRYWILE,BRYDEN RD & WILSON AVE,,39.960347,-82.966618,,,,
2075,BRYOPPE,BRYDEN RD & KENDALL PL,,39.960287,-82.962925,,,,
2076,BRYMILE,BRYDEN RD & MILLER AVE,,39.960242,-82.960229,,,,
2077,BRYKELE,BRYDEN RD & KELTON AVE,,39.960211,-82.957794,,,,
2078,BRYMORE,BRYDEN RD & MORRISON AVE,,39.960142,-82.955148,,,,
2079,BRYFAIE,BRYDEN RD & FAIRWOOD AVE,,39.96009,-82.952904,,,,
2081,KEN200N,2000 KENNY RD,,39.999985,-83.034509,,,,
2082,BRYMORW,BRYDEN RD & MORRISON AVE,,39.960251,-82.954738,,,,
2083,BRYKELW,BRYDEN RD & KELTON AVE,,39.960328,-82.958871,,,,
2084,BRYMILW,BRYDEN RD & MILLER AVE,,39.960349,-82.960281,,,,
2085,BRYALTW,BRYDEN RD & LOEFFLER AVE,,39.960403,-82.963271,,,,
2086,BRYWILW,BRYDEN RD & WILSON AVE,,39.960463,-82.966225,,,,
2087,BRYCHAW,BRYDEN RD & S CHAMPION AVE,,39.960521,-82.969547,,,,
2088,BRYOHIW,BRYDEN RD & S OHIO AVE,,39.960538,-82.970488,,,,
2089,BRY21SW,BRYDEN RD & S 21ST ST,,39.960579,-82.972909,,,,
2090,BRY18TW,BRYDEN RD & S 18TH ST,,39.960635,-82.976429,,,,
2091,BRYMONW,BRYDEN RD & S MONROE AVE,,39.960677,-82.978813,,,,
2092,BRYPARW,BRYDEN RD & PARSONS AVE,,39.960724,-82.981644,,,,
2093,TOWLESW,E TOWN ST & LESTER DR,,39.960763,-82.983454,,,,
2094,TOWGRAW,E TOWN ST & S GRANT AVE,,39.960003,-82.990213,,,,
2095,KENWOON,KENNY RD & WOODY HAYES DR,,40.003005,-83.034243,,,,
2096,LIVPEAE,E LIVINGSTON AVE & S PEARL ST,,39.952673,-82.997661,,,,
2105,JAETHUS,JAEGER ST & THURMAN AVE,,39.939697,-82.990695,,,,
2106,JAEGATS,JAEGER ST & E GATES ST,,39.937638,-82.990868,,,,
2107,HANBRUE,HANFORD ST & BRUCK ST,,39.936452,-82.988484,,,,
2109,FREPARE,FREBIS AVE & PARSONS AVE,,39.935431,-82.983818,,,,
2110,FREANNE,FREBIS AVE & ANN ST,,39.935337,-82.981334,,,,
2111,FRE18TE,FREBIS AVE & S 18TH ST,,39.935206,-82.978535,,,,
2116,FRESTUE,FREBIS AVE & STUDER AVE,,39.934572,-82.965231,,,,
2117,LOCSHES,LOCKBOURNE RD & SHELDON AVE,,39.932993,-82.964624,,,,
2118,LOCMARS,LOCKBOURNE RD & E MARKISON AVE,,39.930504,-82.96483,,,,
2119,LOCSMIS,LOCKBOURNE RD & SMITH RD,,39.92734,-82.96508,,,,
2120,LOCREES,LOCKBOURNE RD & REEB AVE,,39.924354,-82.965354,,,,
2123,LOC234S,2341 LOCKBOURNE RD,,39.916746,-82.965949,,,,
2124,KOEACRE,1130 KOEBEL RD,,39.912572,-82.965531,,,,
2126,KOEEDSLE,KOEBEL & EDSEL AVE,KOEBEL RD & EDSEL AVE,39.912313,-82.960481,,,,
2127,KOEFAIE,KOEBEL RD & FAIRWOOD AVE,,39.912145,-82.957117,,,,
2128,FAIFABS,FAIRWOOD AVE & FABER AVE,,39.908924,-82.957155,,,,
2130,FAIWATS,FAIRWOOD AVE & WATKINS RD,,39.904988,-82.957444,,,,
2132,WOOKENE,WOODY HAYES DR & KENNY RD,,40.003189,-83.03337,,,,
2134,GROSOUE,GROVEWOOD DR & SOUTHFIELD DR,,39.904202,-82.962946,,,,
2135,GRONUWE,GROVEWOOD DR & NUWAY RD,,39.904067,-82.959317,,,,
2136,CAM132N,1320 CAMBRIDGE BLVD,,39.983656,-83.058003,,,,
2137,NAG6THE,E NAGHTEN ST & N 6TH ST,289 E NAGHTEN ST & N 6TH ST,39.968627,-82.993035,,,,
2139,FAIWATN,FAIRWOOD AVE & WATKINS RD,,39.904566,-82.957362,,,,
2140,FAIFABN,FAIRWOOD AVE & FABER AVE,,39.908535,-82.957028,,,,
2141,KOEFAIW,KOEBEL RD & FAIRWOOD AVE,,39.912235,-82.957165,,,,
2143,SAICLEN,ST ANNS W SVC RD & ST ANNS #1 ENT,,40.113474,-82.947501,,,,
2144,LINGEOW,LINCOLN PARK CT & GEORGESVILLE RD,,39.946752,-83.112011,,,,
2145,LOCMARN,LOCKBOURNE RD & MARION RD,,39.923086,-82.96524,,,,
2146,LOCINNN,LOCKBOURNE RD & E INNIS AVE,,39.925153,-82.965124,,,,
2147,LOCSMIN,LOCKBOURNE RD & SMITH RD,,39.927354,-82.964936,,,,
2149,LOCMOLN,LOCKBOURNE RD & MOLER RD,,39.93251,-82.964527,,,,
2150,FRESTUW,FREBIS AVE & STUDER AVE,,39.934698,-82.965863,,,,
2152,FREOAKW,FREBIS AVE & OAKWOOD AVE,,39.934883,-82.969789,,,,
2153,FREOHIW,FREBIS AVE & S OHIO AVE,,39.935034,-82.972775,,,,
2154,FREGILW,FREBIS AVE & GILBERT ST,,39.935152,-82.975271,,,,
2155,FRE18TW,FREBIS AVE & S 18TH ST,,39.935306,-82.978521,,,,
2156,FREANNW,FREBIS AVE & ANN ST,,39.935443,-82.981373,,,,
2157,FREPARW,FREBIS AVE & PARSONS AVE,,39.935536,-82.983382,,,,
2158,WASHANN,S WASHINGTON AVE & HANFORD ST,,39.936277,-82.985353,,,,
2159,HANBRUW,HANFORD ST & BRUCK ST,,39.936558,-82.988284,,,,
2162,JAETHUN,JAEGER ST & THURMAN AVE,,39.939474,-82.990579,,,,
2164,JAEREIN,JAEGER ST & REINHARD AVE,,39.94341,-82.990231,,,,
2167,KIMCOUE,KIMBERLY PKWY N & COURTRIGHT RD,,39.921481,-82.89636,,,,
2171,LONTALE,E LONG ST & TALMADGE AVE,,39.967372,-82.979447,,,,
2172,LON17TE,E LONG ST & N 17TH ST,,39.967731,-82.976765,,,,
2173,LON20TE,E LONG ST & N 20TH ST,,39.968025,-82.97379,,,,
2175,LONOHIE,E LONG ST & N OHIO AVE,,39.968428,-82.970117,,,,
2176,LONCHAE,E LONG ST & N CHAMPION AVE,,39.968601,-82.968591,,,,
2177,LONWINE,E LONG ST & WINNER AVE,,39.96888,-82.966175,,,,
2181,LONWOOE,E LONG ST & WOODLAND AVE,,39.968548,-82.957109,,,,
2182,LONBRUW,E LONG ST & BRUNSON AVE,,39.96876,-82.95429,,,,
2183,LONNELE,E LONG ST & N NELSON RD,,39.96899,-82.95142,,,,
2184,GRESHEW,GREENWAY AVE S & SHERBOURNE DR,,39.971629,-82.95006,,,,
2185,GREGREW,GREENWAY AVE & GREENWAY AVE S,,39.973629,-82.952466,,,,
2186,LONNELW,E LONG ST & N NELSON RD,,39.969126,-82.951217,,,,
2192,LONWINW,E LONG ST & WINNER AVE,,39.968993,-82.966308,,,,
2193,KINOPPW,KING AVE & MEADOW RD,,39.991431,-83.039239,,,,
2194,LONOHIW,E LONG ST & N OHIO AVE,,39.968598,-82.969805,,,,
2195,LON20TW,E LONG ST & N 20TH ST,,39.968198,-82.973344,,,,
2196,LON18TW,E LONG ST & N 18TH ST,,39.967928,-82.975719,,,,
2197,LONMONW,E LONG ST & N MONROE AVE,,39.967571,-82.978851,,,,
2198,MAISTAE,W MAIN ST & N STATE ST,,40.126516,-82.932836,,,,
2201,HIGBLENS,S HIGH ST & W BLENKNER ST,,39.951772,-82.998746,,,,
2202,HIGSYCS,S HIGH ST & W SYCAMORE ST,,39.948724,-82.998147,,,,
2203,HIGFRANS,S HIGH ST & W FRANKFORT ST,,39.947241,-82.997858,,,,
2205,HIGWHIS,S HIGH ST & W WHITTIER ST,,39.944223,-82.997267,,,,
2206,HIGSTES,S HIGH ST & STEWART AVE,,39.942096,-82.996857,,,,
2207,HIGGRES,S HIGH ST & GREENLAWN AVE,,39.93921,-82.9963,,,,
2209,HANHIGE,HANFORD ST & S HIGH ST,,39.936768,-82.995622,,,,
2210,4THHANS,S 4TH ST & HANFORD ST,,39.93645,-82.992602,,,,
2211,4THMOLS,S 4TH ST & E MOLER ST,,39.934918,-82.992696,,,,
2212,4THJENS,S 4TH ST & E JENKINS AVE,,39.933129,-82.992823,,,,
2213,4THMARS,S 4TH ST & E MARKISON AVE,,39.931147,-82.992965,,,,
2214,4THWOOS,S 4TH ST & E WOODROW AVE,,39.927723,-82.993238,,,,
2215,4THREES,S 4TH ST & REEB AVE,,39.924943,-82.993457,,,,
2218,HIG210S,2101 S HIGH ST,,39.91941,-82.995505,,,,
2221,HIGDERS,S HIGH ST & DERING AVE,,39.913379,-82.995494,,,,
2223,HIGCASS,S HIGH ST & W CASTLE RD,,39.907428,-82.99547,,,,
2224,HIGALCS,S HIGH ST & W ALCOTT RD,,39.905666,-82.995471,,,,
2226,HIGSOUGS,S HIGH ST & SOUTHGATE DR,,39.901091,-82.995468,,,,
2227,HIGRUMS,S HIGH ST & RUMSEY RD,,39.894288,-82.995632,,,,
2228,HIGWILS,S HIGH ST & WILLIAMS RD,,39.892059,-82.996579,,,,
2229,SUNBERN,SUNBURY RD & BERRYFIELD DR,,40.064975,-82.913568,,,,
2234,HIG365N,3650 S HIGH ST,,39.886945,-82.998628,,,,
2235,HIGWILN,S HIGH ST & WILLIAMS RD,,39.892144,-82.996298,,,,
2236,HIGRUMN,S HIGH ST & RUMSEY RD,,39.894545,-82.99532,,,,
2237,HIGSOUGN,S HIGH ST & SOUTHGATE DR,,39.901521,-82.995214,,,,
2239,HIGSCHVN,S HIGH ST & SCHRYVER RD,,39.903941,-82.995231,,,,
2240,HIGALCN,S HIGH ST & E ALCOTT RD,S HIGH ST & W ALCOTT RD,39.905892,-82.995237,,,,
2241,HIGCASN,S HIGH ST & E CASTLE RD,,39.907473,-82.99525,,,,
2243,HIGDELN,S HIGH ST & DELRAY RD,,39.910792,-82.99525,,,,
2245,HIG205N,2050 S HIGH ST,2050 Unit KINGSTON,39.919658,-82.995279,,,,
2246,HOSHIGE,HOSACK ST & S HIGH ST,,39.922754,-82.994753,,,,
2248,4THINNN,S 4TH ST & E INNIS AVE,,39.926067,-82.993243,,,,
2249,4THWELN,S 4TH ST & E WELCH AVE,,39.930244,-82.992904,,,,
2250,4THSOUN,S 4TH ST & SOUTHWOOD AVE,,39.932194,-82.992753,,,,
2251,4THMOLN,S 4TH ST & E MOLER ST,,39.934949,-82.992576,,,,
2252,4THHANN,S 4TH ST & HANFORD ST,,39.936429,-82.992494,,,,
2253,HANHIGW,HANFORD ST & S HIGH ST,,39.936863,-82.995732,,,,
2254,HIGMITN,S HIGH ST & E MITHOFF ST,,39.938505,-82.996029,,,,
2257,HIGWHIN,S HIGH ST & E WHITTIER ST,,39.944217,-82.997042,,,,
2258,HIGCOLN,S HIGH ST & E COLUMBUS ST,,39.946055,-82.997395,,,,
2259,HIGSYCN,S HIGH ST & E SYCAMORE ST,,39.948721,-82.997922,,,,
2262,COOCLEW,E COOKE RD & CLEVELAND AVE,,40.044904,-82.958849,,,,
2266,MAIGRANE,E MAIN ST & S GRANT AVE,,39.957245,-82.989172,,,,
2267,MAIWASE,E MAIN ST & S WASHINGTON AVE,,39.957588,-82.986156,,,,
2268,MAIALLE,E MAIN ST & ALLEN AVE,,39.957971,-82.979578,,,,
2270,MAIGILE,E MAIN ST & GILBERT ST,,39.957845,-82.973671,,,,
2271,MAIOHIE,E MAIN ST & S OHIO AVE,,39.957794,-82.970993,,,,
2272,MAICHAE,E MAIN ST & S CHAMPION AVE,,39.957753,-82.969033,,,,
2275,MAIKIME,E MAIN ST & KIMBALL PL,,39.957657,-82.96379,,,,
2276,MAIMILLE,E MAIN ST & MILLER AVE,,39.957619,-82.960893,,,,
2277,MAIKELTE,E MAIN ST & KELTON AVE,,39.957587,-82.958854,,,,
2279,MAISEYE,E MAIN ST & SEYMOUR AVE,,39.957468,-82.954631,,,,
2280,MAIBULE,E MAIN ST & BULEN AVE,,39.957399,-82.951334,,,,
2281,MAIRHOE,E MAIN ST & RHOADS AVE,,39.95736,-82.948969,,,,
2283,MAIPARE,E MAIN ST & S PARKVIEW AVE,,39.957207,-82.941985,,,,
2285,MAIDREE,E MAIN ST & S DREXEL AVE,,39.957103,-82.937835,,,,
2287,MAIEUCE,E MAIN ST & EUCLAIRE AVE,,39.95699,-82.933552,,,,
2288,MAIMONE,E MAIN ST & MONTROSE AVE,,39.956922,-82.930727,,,,
2289,MAIROOE,E MAIN ST & S ROOSEVELT AVE,,39.956836,-82.927526,,,,
2291,MAIBROE,E MAIN ST & S BROADLEIGH RD,,39.956718,-82.922844,,,,
2292,EASOFFE,EASTGREEN BLVD & OFFICEVIEW PL,,39.938296,-82.829369,,,,
2293,MAIBROE,E MAIN ST & BROOKSIDE DR,,39.956578,-82.917553,,,,
2294,MAIJAME,E MAIN ST & S JAMES RD,,39.956515,-82.915038,,,,
2296,MAIWEYE,E MAIN ST & S WEYANT AVE,,39.956327,-82.908654,,,,
2297,MAIBARE,E MAIN ST & BARNETT RD,,39.956227,-82.905572,,,,
2298,MAIMAPE,E MAIN ST & MAPLEWOOD AVE,,39.956158,-82.903244,,,,
2299,MAICOLWE,E MAIN ST & COLLINGWOOD AVE,,39.956092,-82.900998,,,,
2302,MAIKARE,E MAIN ST & KARL ST,,39.955762,-82.889033,,,,
2303,MAIYEAE,E MAIN ST & S YEARLING RD,,39.955679,-82.886672,,,,
2305,MAIWESE,E MAIN ST & WESTPHAL AVE,,39.955562,-82.882524,,,,
2306,MAIBERE,E MAIN ST & BERNHARD RD,,39.955496,-82.880056,,,,
2307,MAIHAME,E MAIN ST & S HAMILTON RD,,39.955398,-82.877192,,,,
2309,MAIMANE,E MAIN ST & MANFELD DR,,39.954942,-82.861671,,,,
2313,MAIMANW,E MAIN ST & MANFELD DR,,39.955105,-82.861952,,,,
2315,MAIHAMW,E MAIN ST & S HAMILTON RD,,39.955541,-82.876401,,,,
2316,MAIBERW,E MAIN ST & BERNHARD RD,,39.955648,-82.880205,,,,
2317,MAIWESW,E MAIN ST & WESTPHAL AVE,,39.955706,-82.882081,,,,
2319,MAIYEAW,E MAIN ST & S YEARLING RD,,39.955832,-82.886131,,,,
2320,MAIKARW,E MAIN ST & KARL ST,,39.955909,-82.889028,,,,
2322,MAIROBW,E MAIN ST & ROBINWOOD AVE,,39.95611,-82.896314,,,,
2323,MAICOLWW,E MAIN ST & COLLINGWOOD AVE,,39.956238,-82.90038,,,,
2324,MAIMAPW,E MAIN ST & MAPLEWOOD AVE,,39.956324,-82.90347,,,,
2325,MAIRUBW,E MAIN ST & RUBY AVE,,39.9564,-82.906072,,,,
2326,MAIWEYW,E MAIN ST & S WEYANT AVE,WEYANT LOOP SVC & E MAIN ST,39.956474,-82.908408,,,,
2329,MAIJAMW,E MAIN ST & S JAMES RD,,39.956644,-82.914429,,,,
2331,MAIEASW,E MAIN ST & EASTMOOR BLVD,,39.95676,-82.918595,,,,
2332,MAICHEW,E MAIN ST & S CHESTERFIELD RD,,39.956827,-82.920937,,,,
2333,MAIKENW,E MAIN ST & KENWICK RD,,39.956885,-82.923679,,,,
2334,MAIROOW,E MAIN ST & S ROOSEVELT AVE,,39.956979,-82.927248,,,,
2335,MAIREMW,E MAIN ST & S REMINGTON RD,,39.957052,-82.930138,,,,
2337,MAICASW,E MAIN ST & S CASSADY AVE,,39.957147,-82.933815,,,,
2338,MAIDREW,E MAIN ST & S DREXEL AVE,,39.957246,-82.937909,,,,
2340,MAIPARKW,E MAIN ST & S PARKVIEW AVE,E MAIN ST & PARKVIEW DR,39.957386,-82.942658,,,,
2343,MAIRHOW,E MAIN ST & RHOADS AVE,,39.957502,-82.94909,,,,
2344,MAIFAIW,E MAIN ST & FAIRWOOD AVE,,39.957576,-82.952676,,,,
2346,MAIKELTW,E MAIN ST & KELTON AVE,,39.9577,-82.958442,,,,
2347,MAIMILLW,E MAIN ST & MILLER AVE,,39.957744,-82.960549,,,,
2348,MAIKENW,E MAIN ST & KENDALL PL,,39.95781,-82.964219,,,,
2349,MAIWILW,E MAIN ST & WILSON AVE,,39.957856,-82.966461,,,,
2350,MAICHAW,E MAIN ST & S CHAMPION AVE,,39.957904,-82.969296,,,,
2351,MAIOHIW,E MAIN ST & S OHIO AVE,,39.957929,-82.970702,,,,
2353,MAICARW,E MAIN ST & CARPENTER ST,,39.95801,-82.974384,,,,
2355,MAIMONW,E MAIN ST & S MONROE AVE,,39.958121,-82.978564,,,,
2356,MAIPARSW,E MAIN ST & PARSONS AVE,,39.958164,-82.981517,,,,
2357,MAIWASW,E MAIN ST & S WASHINGTON AVE,,39.957814,-82.985667,,,,
2358,MAIGRANW,E MAIN ST & S GRANT AVE,,39.957406,-82.989203,,,,
2359,RICGRAW,E RICH ST & S GRANT AVE,,39.958512,-82.991372,,,,
2361,CHEPEAW,E CHESTNUT ST & N PEARL ST,,39.967814,-83.000634,,,,
2362,LINJAMW,LINCOLN PARK CT & JAMESTOWN CT,,39.946802,-83.114404,,,,
2363,LINLINN,LINWORTH RD & STATE ROUTE 161,,40.091384,-83.049673,,,,
2364,DEN3RDS,DENNISON AVE & W 3RD AVE,,39.983588,-83.008588,,,,
2365,LINLOCN,LINWORTH RD & LOCH NESS AVE,,40.099389,-83.047494,,,,
2369,TOWDAVW,W TOWN ST & S DAVIS AVE,,39.956213,-83.021285,,,,
2371,SOUSULS,S SOUDER AVE & SULLIVANT AVE,,39.952862,-83.021673,,,,
2372,SOUCAMS,S SOUDER AVE & CAMPBELL AVE,,39.951664,-83.02142,,,,
2373,SOUMOUS,S SOUDER AVE & W MOUND ST,,39.949938,-83.02111,,,,
2374,MOUMOUW,W MOUND ST & MOUNT CALVARY AVE,,39.949352,-83.022923,,,,
2375,MOUCYPW,W MOUND ST & S CYPRESS AVE,,39.948123,-83.027405,,,,
2376,MOUPRIW,W MOUND ST & S PRINCETON AVE,,39.946653,-83.032798,,,,
2377,MOUCENWF,W MOUND ST & CENTRAL POINT,,39.945336,-83.037631,,,,
2378,MOUCENWN,W MOUND ST & S CENTRAL AVE,,39.946008,-83.035301,,,,
2379,MOURYAW,W MOUND ST & RYAN AVE,,39.944557,-83.040436,,,,
2380,MOUTOWW,W MOUND ST & TOWNSEND AVE,,39.94359,-83.044044,,,,
2381,MOUWOOW,W MOUND ST & WOODBURY AVE,,39.94297,-83.046372,,,,
2382,MOUCOLW,W MOUND ST & COLUMBIAN AVE,,39.942451,-83.048313,,,,
2383,MOUHILW,W MOUND ST & HILLTONIA AVE,,39.941948,-83.050245,,,,
2384,MOUBELW,W MOUND ST & BELVIDERE AVE,,39.941361,-83.052408,,,,
2385,MOUWHIW,W MOUND ST & WHITETHORNE AVE,,39.940785,-83.054584,,,,
2386,MOUHIGW,W MOUND ST & S HIGHLAND AVE,,39.939676,-83.05867,,,,
2387,MOUWHEW,W MOUND ST & S WHEATLAND AVE,,39.939136,-83.060283,,,,
2391,MOUWARW,W MOUND ST & S WARREN AVE,,39.939822,-83.070922,,,,
2393,MOUHAGW,W MOUND ST & S HAGUE AVE,,39.940155,-83.07418,,,,
2395,MOUROYW,W MOUND ST & S ROYS AVE,,39.940485,-83.077262,,,,
2397,EAKSALW,EAKIN RD & SALISBURY RD,,39.939385,-83.08004,,,,
2398,EAKBRINW,EAKIN RD & S BRINKER AVE,,39.938602,-83.083477,,,,
2399,EAKSYLW,EAKIN RD & S SYLVAN AVE,,39.938682,-83.086143,,,,
2400,EAKDEMW,EAKIN RD & DEMOREST RD,,39.938953,-83.089251,,,,
2401,EAKJOYW,EAKIN RD & JOYFUL ST,,39.939108,-83.091747,,,,
2402,EAKBRIXW,EAKIN RD & BRIXHAM RD,,39.939177,-83.093813,,,,
2403,EAKWEDW,EAKIN RD & WEDGEWOOD DR,,39.939268,-83.096168,,,,
2404,EAK374W,3740 EAKIN RD,,39.939348,-83.098226,,,,
2405,EAKMAUW,EAKIN RD & MAURINE DR,,39.939408,-83.100338,,,,
2406,EAKHOLW,EAKIN RD & HOLLY HILL DR,,39.939384,-83.10285,,,,
2418,EAKHOLE,EAKIN RD & HOLLY HILL DR,,39.939315,-83.102832,,,,
2419,EAKMAUE,EAKIN RD & MAURINE DR,,39.939346,-83.100668,,,,
2420,EAKDOUE,EAKIN RD & DOULTON CT,,39.939257,-83.098264,,,,
2421,EAKWEDE,EAKIN RD & WEDGEWOOD DR,,39.939207,-83.096659,,,,
2422,EAKBRIXE,EAKIN RD & BRIXHAM RD,,39.93911,-83.094179,,,,
2424,EAKDEME,EAKIN RD & DEMOREST RD,,39.938846,-83.089294,,,,
2426,EAKSYLE,EAKIN RD & S SYLVAN AVE,,39.938574,-83.085846,,,,
2427,EAKBRINE,EAKIN RD & S BRINKER AVE,,39.938516,-83.083401,,,,
2428,SALEAKN,SALISBURY RD & EAKIN RD,,39.939593,-83.079597,,,,
2430,MOUBINE,W MOUND ST & BINNS BLVD,,39.940446,-83.07795,,,,
2432,MOUHAGE,W MOUND ST & S HAGUE AVE,,39.940036,-83.074044,,,,
2433,MOURACE,W MOUND ST & RACINE AVE,,39.939739,-83.071253,,,,
2435,MOURICE,W MOUND ST & S RICHARDSON AVE,,39.939086,-83.066736,,,,
2437,MOUWAYE,W MOUND ST & S WAYNE AVE,,39.938401,-83.062789,,,,
2438,MOUWHEE,W MOUND ST & S WHEATLAND AVE,,39.939125,-83.059988,,,,
2439,MOUHIGE,W MOUND ST & S HIGHLAND AVE,,39.939598,-83.058527,,,,
2440,MOUCLAE,W MOUND ST & CLARENDON AVE,,39.9402,-83.056159,,,,
2441,MOUBUTE,W MOUND ST & BUTLER AVE,,39.940875,-83.053769,,,,
2442,MOUWREE,W MOUND ST & WREXHAM AVE,,39.941529,-83.051295,,,,
2443,MOUNASE,W MOUND ST & NASHOBA AVE,,39.942003,-83.049531,,,,
2444,MOUCLAE,W MOUND ST & CLARK AVE,,39.942554,-83.047538,,,,
2445,MOULARE,W MOUND ST & LARCOMB AVE,,39.943076,-83.045511,,,,
2446,MOUEDWE,W MOUND ST & EDWIN ST,,39.943726,-83.043041,,,,
2447,MOURYAE,W MOUND ST & RYAN AVE,,39.944354,-83.040742,,,,
2448,MOUCENE,W MOUND ST & CENTRAL POINT,,39.945194,-83.037504,,,,
2450,MOUCOPSE,W MOUND ST & COOPER STADIUM,,39.947102,-83.030599,,,,
2451,MOUGLENE,W MOUND ST & GLENWOOD AVE,,39.947672,-83.02852,,,,
2452,MOUCYPE,W MOUND ST & S CYPRESS AVE,,39.948124,-83.026868,,,,
2454,MOUMOUE,W MOUND ST & MOUNT CALVARY AVE,MOUND ST & MT CALVARY AVE,39.949388,-83.022234,,,,
2455,SOUMOUN,S SOUDER AVE & W MOUND ST,,39.949946,-83.020939,,,,
2456,DAVCAMN,S DAVIS AVE & CAMPBELL AVE,,39.951655,-83.019992,,,,
2457,DAVSULN,S DAVIS AVE & SULLIVANT AVE,,39.953703,-83.020462,,,,
2458,DAVRICN,S DAVIS AVE & W RICH ST,,39.954812,-83.02065,,,,
2459,RICGREE,W RICH ST & S GREEN ST,,39.955138,-83.019531,,,,
2460,RICGRUE,W RICH ST & S GRUBB ST,,39.955429,-83.016835,,,,
2462,RICMCDE,W RICH ST & MCDOWELL ST,,39.955916,-83.012863,,,,
2464,RICSTAE,W RICH ST & STARLING ST,,39.956375,-83.008919,,,,
2476,BROHOFE,E BROAD ST & HOFFMAN AVE,,39.965204,-82.973972,,,,
2477,BROOHIE,E BROAD ST & S OHIO AVE,,39.96562,-82.970432,,,,
2478,BROCHAE,E BROAD ST & S CHAMPION AVE,,39.965855,-82.968457,,,,
2479,BROWILAE,E BROAD ST & WILSON AVE,,39.966161,-82.965697,,,,
2480,BROLATE,E BROAD ST & LATTA AVE,,39.966473,-82.962886,,,,
2481,BROFRA1E,E BROAD ST & FRANKLIN PK W,,39.966775,-82.960149,,,,
2482,BROWOOE,E BROAD ST & WOODLAND AVE,,39.967032,-82.957875,,,,
2483,BRONELE,E BROAD ST & S NELSON RD,,39.968,-82.949106,,,,
2484,BROPARE,E BROAD ST & PARK DR,,39.968475,-82.945113,,,,
2485,BROPARKE,E BROAD ST & S PARKVIEW AVE,,39.96893,-82.941003,,,,
2486,BRODREE,E BROAD ST & S DREXEL AVE,,39.969463,-82.93624,,,,
2487,BROCASAE,E BROAD ST & S CASSADY AVE,,39.969901,-82.932366,,,,
2489,BROSTANE,E BROAD ST & S STANWOOD RD,,39.970434,-82.927277,,,,
2490,BROMERE,E BROAD ST & S MERKLE RD,,39.970753,-82.924195,,,,
2491,BROBRODE,E BROAD ST & S BROADLEIGH RD,,39.970977,-82.922226,,,,
2492,BROHARDE,E BROAD ST & S HARDING RD,,39.971319,-82.919001,,,,
2494,BROJAME,E BROAD ST & S JAMES RD,,39.971979,-82.913075,,,,
2496,BRONAPE,E BROAD ST & S NAPOLEON AVE,,39.972739,-82.905973,,,,
2497,MAIFOUNE,E MAIN ST & FOUNTAIN LN,,39.954873,-82.859638,,,,
2498,BRO367E,3675 E BROAD ST,,39.972963,-82.903913,,,,
2500,STYAGLS,N STYGLER RD & AGLER RD,,40.020264,-82.890587,,,,
2501,BROROBE,E BROAD ST & ROBINWOOD AVE,,39.973759,-82.89616,,,,
2502,BROBEETE,E BROAD ST & BEECHTREE RD,,39.973919,-82.894701,,,,
2503,BROBEEWE,E BROAD ST & BEECHWOOD RD,,39.974225,-82.891737,,,,
2504,BRO4251E,4251 E BROAD ST,,39.974602,-82.888173,,,,
2505,BROPIN2E,E BROAD ST & PINEWOOD DR,,39.974898,-82.885105,,,,
2506,BROYEAE,E BROAD ST & S YEARLING RD,,39.975044,-82.883908,,,,
2507,BROSANE,E BROAD ST & SANTA MARIA LN,,39.97531,-82.881256,,,,
2508,BROFAIE,E BROAD ST & FAIRWAY BLVD,,39.975709,-82.877493,,,,
2509,BROHAMIE,E BROAD ST & S HAMILTON RD,,39.976044,-82.874382,,,,
2510,BROWOODE,E BROAD ST & WOODCLIFF DR,,39.976287,-82.872012,,,,
2513,BROMTCS,E BROAD ST & MT CARMEL HOSPITAL,MOUNT CARMEL W LOT & MOUNT CARMEL S LOT,39.977908,-82.844626,,,,
2515,BROMIDCW,E BROAD ST & MIDCLIFF DR,,39.976434,-82.872195,,,,
2516,BROHAMW,E BROAD ST & N HAMILTON RD,,39.976022,-82.87601,,,,
2517,BROFAIW,E BROAD ST & FAIRWAY BLVD,,39.975829,-82.877748,,,,
2519,BROYEAW,E BROAD ST & N YEARLING RD,,39.975003,-82.885697,,,,
2520,WESWESSW,WESTPORT RD & WESTPORT CT,,39.945663,-83.11529,,,,
2521,BROBEEWW,E BROAD ST & BEECHWOOD RD,,39.974418,-82.891418,,,,
2522,BROBEETW,E BROAD ST & BEECHTREE RD,,39.974148,-82.89389,,,,
2523,BROROBW,E BROAD ST & ROBINWOOD AVE,,39.973864,-82.896721,,,,
2525,BROMAPW,E BROAD ST & MAPLEWOOD AVE,,39.973218,-82.902787,,,,
2526,HAMPIZN,HAMILTON RD & PIZZURO PARK DR,,39.998512,-82.868076,,,,
2527,BROWEYW,E BROAD ST & N WEYANT AVE,,39.972817,-82.906651,,,,
2528,BROHAMPW,E BROAD ST & N HAMPTON RD,,39.972516,-82.909396,,,,
2529,BROJAMW,E BROAD ST & N JAMES RD,,39.972225,-82.912489,,,,
2531,BROHARDW,E BROAD ST & N HARDING RD,,39.971446,-82.919243,,,,
2532,BROBRODW,E BROAD ST & N BROADLEIGH RD,,39.971175,-82.921729,,,,
2533,BROMERW,E BROAD ST & N MERKLE RD,,39.970841,-82.924734,,,,
2534,BROSTANW,E BROAD ST & N STANWOOD RD,,39.97051,-82.927928,,,,
2536,BROCASAW,E BROAD ST & N CASSADY AVE,,39.969934,-82.93334,,,,
2537,BRODREW,E BROAD ST & N DREXEL AVE,,39.969393,-82.93816,,,,
2538,BROPARVW,E BROAD ST & N PARKVIEW AVE,,39.968997,-82.941683,,,,
2539,BROMEAW,E BROAD ST & MEADOW PARK AVE,,39.968575,-82.945477,,,,
2540,BRONELFW,E BROAD ST & N NELSON RD,,39.967972,-82.95115,,,,
2541,BROWOOW,E BROAD ST & WOODLAND AVE,,39.967222,-82.957926,,,,
2542,BROPARWW,E BROAD ST & PARKWOOD AVE,,39.966962,-82.96029,,,,
2544,BROWINW,E BROAD ST & WINNER AVE,,39.966352,-82.96567,,,,
2545,BROGOVW,E BROAD ST & GOVERNOR PL,,39.965974,-82.969109,,,,
2546,BROOHIW,E BROAD ST & N OHIO AVE,,39.965786,-82.970657,,,,
2547,BRO20TW,E BROAD ST & N 20TH ST,,39.965381,-82.9741,,,,
2548,BRO17TW,E BROAD ST & N 17TH ST,,39.964962,-82.977644,,,,
2549,BROHAMIW,E BROAD ST & HAMILTON PK,E BROAD ST & HAMILTON AVE,39.964568,-82.980904,,,,
2552,AGL540W,540 AGLER RD,,40.019664,-82.896674,,,,
2553,LINKINN,LINCOLNSHIRE RD & KING GEORGE AVE,,40.021337,-82.900044,,,,
2554,LINBONN,LINCOLNSHIRE RD & BONNINGTON WAY,,40.025871,-82.901099,,,,
2555,DEM851S,851 DEMOREST RD,,39.936487,-83.089946,,,,
2556,HAMFAIS,S HAMILTON RD & FAIRWAY BLVD,,39.973554,-82.874648,,,,
2557,HAMSANS,S HAMILTON RD & SAN JOSE LN,,39.971089,-82.875534,,,,
2558,HAMSAIS,S HAMILTON RD & SAINT ANN LN,,39.969562,-82.875663,,,,
2560,HAMETNS,S HAMILTON RD & ETNA RD,,39.964839,-82.876109,,,,
2561,HAMRICS,S HAMILTON RD & RICKENBACKER AVE,,39.962031,-82.876337,,,,
2562,HAMLANS,S HAMILTON RD & LANGLEY AVE,,39.95984,-82.876524,,,,
2563,HAMWRIS,S HAMILTON RD & WRIGHT AVE,,39.958243,-82.876679,,,,
2564,HAMMAIS,S HAMILTON RD & E MAIN ST,,39.955782,-82.876908,,,,
2565,ROSMAIN,ROSS RD & E MAIN ST,,39.956056,-82.878643,,,,
2566,LIN442N,442 LINCOLNSHIRE RD,442 LINCOLNSHIRE RD & KENILWORTH CT,40.030561,-82.899158,,,,
2567,ROSLANN,ROSS RD & LANGLEY AVE,,39.960051,-82.878294,,,,
2568,LANHAME,LANGLEY AVE & S HAMILTON RD,,39.960131,-82.876902,,,,
2569,HAMKAEN,S HAMILTON RD & KAE AVE,,39.962801,-82.876061,,,,
2572,HAMBROHN,S HAMILTON RD & BROADHURST DR,,39.967716,-82.875635,,,,
2573,HAMSHAN,S HAMILTON RD & SHAKER SQ,,39.969673,-82.875455,,,,
2574,HAMSANN,S HAMILTON RD & SAN JOSE LN,,39.970553,-82.87536,,,,
2575,HAMFAIN,S HAMILTON RD & FAIRWAY BLVD,,39.972803,-82.87481,,,,
2576,WESLEES,WESTPORT RD & LEESBURG CT W,,39.945023,-83.1165,,,,
2578,PINYEAE,PINEWOOD DR & S YEARLING RD,,39.97229,-82.885107,,,,
2580,MAYYEAW,MAYFLOWER BLVD & S YEARLING RD,,39.969143,-82.885636,,,,
2581,MAYMEDS,MAYFLOWER BLVD & MEDWAY AVE,,39.968322,-82.889693,,,,
2583,MAYELBS,MAYFLOWER BLVD & ELBERN AVE,,39.966594,-82.892571,,,,
2584,SEIBEEE,SEIGMAN AVE & BEECHWOOD RD,,39.965125,-82.892636,,,,
2586,SEIYEAE,SEIGMAN AVE & S YEARLING RD,,39.96473,-82.885777,,,,
2587,YEARICS,S YEARLING RD & RICKENBACKER AVE,,39.962805,-82.885777,,,,
2589,YEAWRIS,S YEARLING RD & WRIGHT PARK,,39.958111,-82.886221,,,,
2590,YEAMAIS,S YEARLING RD & E MAIN ST,,39.956027,-82.886416,,,,
2592,MOUYEAE,E MOUND ST & S YEARLING RD,,39.952038,-82.886238,,,,
2596,PIEMAIN,PIERCE AVE & E MAIN ST,,39.955441,-82.883267,,,,
2597,BERMAIS,BERNHARD RD & E MAIN ST,,39.95512,-82.881197,,,,
2600,BERMOUS,BERNHARD RD & E MOUND ST,,39.951969,-82.881473,,,,
2602,MOUYEAW,E MOUND ST & S YEARLING RD,,39.952122,-82.886448,,,,
2604,YEAMAIN,S YEARLING RD & E MAIN ST,,39.95548,-82.886376,,,,
2605,YEAWRIN,S YEARLING RD & WRIGHT AVE,,39.958082,-82.886101,,,,
2607,YEARICN,S YEARLING RD & RICKENBACKER AVE,,39.962964,-82.885627,,,,
2609,SEIBEEW,SEIGMAN AVE & BEECHWOOD RD,,39.965211,-82.89279,,,,
2610,MAYELBN,MAYFLOWER BLVD & ELBERN AVE,,39.967174,-82.892421,,,,
2612,MAYMEDN,MAYFLOWER BLVD & MEDWAY AVE,,39.968741,-82.889122,,,,
2614,MAYYEAE,MAYFLOWER BLVD & S YEARLING RD,,39.969057,-82.88548,,,,
2616,YEASANN,S YEARLING RD & SAN JOSE LN,,39.972014,-82.884789,,,,
2619,HAMSWAS,N HAMILTON RD & SWANSON,,39.998493,-82.868421,,,,
2620,STY124N,124 STYGLER RD,124 S STYGLER RD,40.017257,-82.890527,,,,
2621,CASCUMN,CASSADY AVE & CUMBERLAND WOODS DR,,40.009756,-82.929373,,,,
2622,PARWHIN,PARSONS AVE & E WHITTIER ST,,39.944364,-82.982857,,,,
2624,BRODAVW,W BROAD ST & N DAVIS AVE,,39.959762,-83.021483,,,,
2626,BRORODW,W BROAD ST & RODGERS AVE,,39.959052,-83.027266,,,,
2628,BROYALW,W BROAD ST & N YALE AVE,,39.958515,-83.03172,,,,
2629,BROCHIW,W BROAD ST & CHICAGO AVE,,39.958235,-83.034022,,,,
2631,BROCENW,W BROAD ST & N CENTRAL AVE,,39.957711,-83.038489,,,,
2632,BROSTEW,W BROAD ST & STEVENS AVE,,39.957373,-83.041344,,,,
2634,STRHARW,2096 STRINGTOWN RD,,39.878568,-83.057841,,,,
2635,BROLECW,W BROAD ST & LECHNER AVE,,39.956042,-83.053535,,,,
2637,BROMIDLW,W BROAD ST & MIDLAND AVE,,39.955803,-83.057783,,,,
2638,BROHIGW,W BROAD ST & S HIGHLAND AVE,,39.95567,-83.060617,,,,
2639,BROOAKW,W BROAD ST & N OAKLEY AVE,,39.955564,-83.062757,,,,
2640,BROEURW,W BROAD ST & N EUREKA AVE,,39.955427,-83.065718,,,,
2642,BROOGDW,W BROAD ST & N OGDEN AVE,,39.955182,-83.070966,,,,
2643,BROHAGW,W BROAD ST & N HAGUE AVE,,39.954999,-83.074317,,,,
2645,BROHALW,W BROAD ST & HALDY AVE,,39.954778,-83.079216,,,,
2646,BROWESW,W BROAD ST & N WESTMOOR AVE,,39.954665,-83.081733,,,,
2647,BROBRIW,W BROAD ST & N BRINKER AVE,,39.954538,-83.084265,,,,
2648,CAS1884S,1884 N CASSADY AVE,,40.0104,-82.929439,,,,
2649,BROSOUTW,W BROAD ST & S SOUTHAMPTON AVE,,39.954311,-83.08872,,,,
2651,BROALGE,W BROAD ST & S ALGONQUIN AVE,,39.954304,-83.085414,,,,
2652,BROWESGE,W BROAD ST & S WESTGATE AVE,,39.954435,-83.082543,,,,
2654,BROROYE,W BROAD ST & S ROYS AVE,,39.954668,-83.077932,,,,
2656,BROHAGE,W BROAD ST & S HAGUE AVE,,39.954822,-83.074309,,,,
2657,BROWARE,W BROAD ST & S WARREN AVE,,39.954979,-83.071311,,,,
2658,BROBURE,W BROAD ST & S BURGESS AVE,,39.955109,-83.068788,,,,
2660,BROWAYE,W BROAD ST & N WAYNE AVE,,39.955335,-83.064223,,,,
2662,BROHIGE,W BROAD ST & S HIGHLAND AVE,,39.955496,-83.060658,,,,
2663,BROWHIE,W BROAD ST & WHITETHORNE AVE,,39.955668,-83.056952,,,,
2664,BROLECE,W BROAD ST & LECHNER AVE,,39.955864,-83.053095,,,,
2666,BROENTE,W BROAD ST & GLENWOOD PARK,,39.956433,-83.047616,,,,
2667,BROSTEE,W BROAD ST & STEVENS AVE,,39.957201,-83.041354,,,,
2668,BROCENE,W BROAD ST & S CENTRAL AVE,,39.957644,-83.037744,,,,
2670,BROWESPE,W BROAD ST & WEST PARK AVE,,39.958147,-83.033487,,,,
2671,BROGLEE,W BROAD ST & S GLENWOOD AVE,,39.958556,-83.030116,,,,
2673,BROHAWE,W BROAD ST & HAWKES AVE,,39.95905,-83.026039,,,,
2675,BRODAVE,W BROAD ST & S DAVIS AVE,,39.959611,-83.021282,,,,
2676,BROSKIE,W BROAD ST & S SKIDMORE ST,,39.960142,-83.016846,,,,
2677,BROMAYE,W BROAD ST & S MAY AVE,,39.960441,-83.0144,,,,
2678,BRO429E,429 W BROAD ST,,39.960746,-83.011979,,,,
2679,BROSTARE,W BROAD ST & STARLING ST,,39.961006,-83.009639,,,,
2680,BROWASBE,W BROAD ST & WASHINGTON BLVD,,39.961312,-83.007202,,,,
2681,BROFROE,W BROAD ST & S FRONT ST,,39.96188,-83.002666,,,,
2684,SOURICS,S SOUDER AVE & W RICH ST,,39.955052,-83.022102,,,,
2686,HAMSIMN,S HAMILTON RD & SIMPSON DR,,39.951418,-82.877238,,,,
2687,SULMARTW,SULLIVANT AVE & MARTIN AVE,,39.953029,-83.022953,,,,
2688,SULAVOW,SULLIVANT AVE & AVONDALE AVE,,39.95255,-83.025551,,,,
2689,SULCYPW,SULLIVANT AVE & S CYPRESS AVE,,39.952133,-83.027729,,,,
2690,SULGLEW,SULLIVANT AVE & S GLENWOOD AVE,,39.951928,-83.028889,,,,
2691,SULYALW,SULLIVANT AVE & S YALE AVE,,39.951523,-83.031117,,,,
2692,SULPRIW,SULLIVANT AVE & S PRINCETON AVE,,39.951055,-83.033617,,,,
2693,SULBREW,SULLIVANT AVE & BREHL AVE,,39.950758,-83.035212,,,,
2694,SULCENW,SULLIVANT AVE & S CENTRAL AVE,,39.950561,-83.036319,,,,
2695,SULI70W,SULLIVANT AVE & I70,,39.950132,-83.038538,,,,
2696,SULMARW,SULLIVANT AVE & MARTHA AVE,,39.94982,-83.040213,,,,
2697,SULCATW,SULLIVANT AVE & CATHERINE ST,,39.94936,-83.04266,,,,
2698,SULLARW,SULLIVANT AVE & LARCOMB AVE,,39.948585,-83.046775,,,,
2699,SULWOOW,SULLIVANT AVE & WOODBURY AVE,,39.948323,-83.04816,,,,
2700,SULNASW,SULLIVANT AVE & NASHOBA AVE,,39.947864,-83.050629,,,,
2701,SULWREW,SULLIVANT AVE & WREXHAM AVE,,39.947396,-83.053127,,,,
2702,SULWHIW,SULLIVANT AVE & WHITETHORNE AVE,,39.946867,-83.055911,,,,
2703,SULCLAW,SULLIVANT AVE & CLARENDON AVE,,39.946424,-83.058307,,,,
2704,SULWHEW,SULLIVANT AVE & S WHEATLAND AVE,,39.945795,-83.061676,,,,
2705,SULWAYW,SULLIVANT AVE & S WAYNE AVE,,39.945467,-83.063423,,,,
2706,SULTERW,SULLIVANT AVE & S TERRACE AVE,,39.944929,-83.066236,,,,
2707,SULBURW,SULLIVANT AVE & S BURGESS AVE,,39.944473,-83.068734,,,,
2708,SULWARW,SULLIVANT AVE & S WARREN AVE,,39.944025,-83.071081,,,,
2709,SULHAGW,SULLIVANT AVE & S HAGUE AVE,,39.943768,-83.073476,,,,
2710,SULCHEW,SULLIVANT AVE & CHESTERSHIRE RD,,39.943641,-83.075566,,,,
2711,SULBINW,SULLIVANT AVE & BINNS BLVD,,39.94353,-83.077888,,,,
2713,HURWICN,S HURON AVE & WICKLOW RD,,39.945923,-83.080187,,,,
2715,WICBRIW,WICKLOW RD & S BRINKER AVE,,39.946528,-83.083846,,,,
2717,WICSOUW,WICKLOW RD & S SOUTHAMPTON AVE,,39.946488,-83.087723,,,,
2718,WICDEMW,WICKLOW RD & DEMOREST RD,,39.946434,-83.089769,,,,
2719,DEMSULS,DEMOREST RD & SULLIVANT AVE,,39.943088,-83.089669,,,,
2720,SULDEXE,SULLIVANT AVE & DEXTER AVE,,39.942938,-83.08799,,,,
2722,SULBRIE,SULLIVANT AVE & S BRINKER AVE,,39.94313,-83.083533,,,,
2723,SULCREE,SULLIVANT AVE & CRESCENT RD,,39.943287,-83.080379,,,,
2724,SULBINE,SULLIVANT AVE & BINNS BLVD,,39.943373,-83.078295,,,,
2725,SULCHEE,SULLIVANT AVE & CHESTERSHIRE RD,,39.943521,-83.075515,,,,
2726,SULHAGE,SULLIVANT AVE & S HAGUE AVE,,39.943656,-83.072848,,,,
2727,SULOGDE,SULLIVANT AVE & S OGDEN AVE,,39.944118,-83.07001,,,,
2728,SULRICE,SULLIVANT AVE & S RICHARDSON AVE,,39.944707,-83.066869,,,,
2729,SULEURE,SULLIVANT AVE & S EUREKA AVE,,39.945166,-83.064436,,,,
2730,SULOAKE,SULLIVANT AVE & S OAKLEY AVE,,39.945617,-83.062039,,,,
2731,SULHIGE,SULLIVANT AVE & S HIGHLAND AVE,,39.946037,-83.059815,,,,
2733,SULBELE,SULLIVANT AVE & BELVIDERE AVE,,39.946969,-83.054771,,,,
2734,SULHILE,SULLIVANT AVE & HILLTONIA AVE,,39.947469,-83.052228,,,,
2735,SULCOLE,SULLIVANT AVE & COLUMBIAN AVE,,39.94791,-83.049876,,,,
2736,SULLARE,SULLIVANT AVE & LARCOMB AVE,,39.948414,-83.047163,,,,
2737,SULHELE,SULLIVANT AVE & HELEN ST,,39.948981,-83.044132,,,,
2738,SULRYAE,SULLIVANT AVE & RYAN AVE,,39.949445,-83.041752,,,,
2739,SULGUIE,SULLIVANT AVE & S GUILFORD AVE,,39.950264,-83.037351,,,,
2740,SULDANE,SULLIVANT AVE & DANA AVE,,39.950783,-83.034558,,,,
2741,SULWESE,SULLIVANT AVE & WEST PARK AVE,,39.951245,-83.032102,,,,
2742,SULGLEE,SULLIVANT AVE & S GLENWOOD AVE,,39.951763,-83.029284,,,,
2743,SULDAKE,SULLIVANT AVE & DAKOTA AVE,,39.952202,-83.026936,,,,
2744,SULHAWE,SULLIVANT AVE & HAWKES AVE,,39.952628,-83.024666,,,,
2745,SULSOUE,SULLIVANT AVE & S SOUDER AVE,,39.953161,-83.021841,,,,
2748,WHIPEAE,E WHITTIER ST & S PEARL ST,,39.943903,-82.996285,,,,
2749,WHI3RDE,E WHITTIER ST & S 3RD ST,,39.944095,-82.994573,,,,
2751,WHIJAEE,E WHITTIER ST & JAEGER ST,,39.944486,-82.990264,,,,
2752,WHIBRUE,E WHITTIER ST & BRUCK ST,,39.944351,-82.987564,,,,
2754,WHIPARE,E WHITTIER ST & PARSONS AVE,,39.944123,-82.983295,,,,
2755,WHIANNE,E WHITTIER ST & ANN ST,,39.943996,-82.980743,,,,
2756,WHIOPPE,E WHITTIER ST & CARPENTER ST,,39.943714,-82.975339,,,,
2757,WHI22NE,E WHITTIER ST & S 22ND ST,,39.943613,-82.973459,,,,
2759,WHICHAE,E WHITTIER ST & S CHAMPION AVE,,39.943477,-82.970701,,,,
2760,WHIWILE,E WHITTIER ST & WILSON AVE,,39.943343,-82.967974,,,,
2761,WHISTUE,E WHITTIER ST & STUDER AVE,,39.94321,-82.965251,,,,
2762,WHIMILE,E WHITTIER ST & MILLER AVE,,39.943148,-82.962439,,,,
2763,WHIKELE,E WHITTIER ST & KELTON AVE,,39.943046,-82.960278,,,,
2764,WHIBERE,E WHITTIER ST & BERKELEY RD,,39.943033,-82.957888,,,,
2765,WHISEYE,E WHITTIER ST & SEYMOUR LOOP,,39.943149,-82.955161,,,,
2767,WHILILW,E WHITTIER ST & LILLEY AVE,,39.943159,-82.958744,,,,
2768,WHIELLW,E WHITTIER ST & ELLSWORTH AVE,,39.943203,-82.961006,,,,
2769,WHILOCW,E WHITTIER ST & LOCKBOURNE RD,,39.943296,-82.963396,,,,
2770,WHILINW,E WHITTIER ST & LINWOOD AVE,,39.943368,-82.96615,,,,
2771,WHIOAKW,E WHITTIER ST & OAKWOOD AVE,,39.943529,-82.969529,,,,
2773,WHIOHIW,E WHITTIER ST & S OHIO AVE,,39.943636,-82.971726,,,,
2774,WHIGILW,E WHITTIER ST & GILBERT ST,,39.943773,-82.974309,,,,
2775,WHIHEYW,E WHITTIER ST & HEYL AVE,,39.943916,-82.977244,,,,
2776,WHI17TW,E WHITTIER ST & S 17TH ST,,39.944015,-82.979137,,,,
2777,WHIPARW,E WHITTIER ST & PARSONS AVE,,39.944214,-82.982781,,,,
2778,WHIBEEW,E WHITTIER ST & BEECH ST,,39.944383,-82.985954,,,,
2779,WHIEBNW,E WHITTIER ST & EBNER ST,,39.944507,-82.988398,,,,
2780,WHI5THW,E WHITTIER ST & S 5TH ST,,39.944588,-82.991193,,,,
2782,WHI3RDW,E WHITTIER ST & S 3RD ST,,39.944253,-82.994159,,,,
2783,DOD250W,250 W DODRIDGE ST,,40.016199,-83.018068,,,,
2787,PARWHIS,PARSONS AVE & E WHITTIER ST,,39.944379,-82.983039,,,,
2788,PARZIMS,PARSONS AVE & ZIMPFER ST,,39.94228,-82.9832,,,,
2790,PARGATS,PARSONS AVE & E GATES ST,,39.937136,-82.9836,,,,
2791,PARFRES,PARSONS AVE & FREBIS AVE,,39.935224,-82.983749,,,,
2792,PARSHES,PARSONS AVE & SHELDON AVE,,39.933651,-82.983863,,,,
2793,PARSOUS,PARSONS AVE & SOUTHWOOD AVE,,39.931701,-82.984006,,,,
2794,PARWELS,PARSONS AVE & E WELCH AVE,,39.929674,-82.984153,,,,
2796,PARINNS,PARSONS AVE & E INNIS AVE,,39.925973,-82.984428,,,,
2797,PARBARS,PARSONS AVE & E BARTHMAN AVE,,39.923915,-82.984576,,,,
2798,PARGROS,PARSONS AVE & GROVEPORT RD,,39.91947,-82.984914,,,,
2799,PARDERS,PARSONS AVE & DERING AVE,,39.912162,-82.985416,,,,
2800,PARCORS,PARSONS AVE & CORR RD,,39.909539,-82.98562,,,,
2801,PARALCS,PARSONS AVE & E ALCOTT RD,,39.906199,-82.98588,,,,
2802,PARZIES,PARSONS AVE & ZIEGLER AVE,,39.902862,-82.986135,,,,
2806,PARRUMS,PARSONS AVE & RUMSEY RD,,39.893618,-82.986846,,,,
2810,PARWILN,PARSONS AVE & WILLIAMS RD,,39.891653,-82.986896,,,,
2811,PARRUMN,PARSONS AVE & RUMSEY AVE,PARSONS AVE & RUMSEY RD,39.89376,-82.986706,,,,
2812,PARHILN,PARSONS AVE & HILOCK AVE,,39.897421,-82.986417,,,,
2814,PARZIEN,PARSONS AVE & ZIEGLER AVE,,39.902806,-82.986001,,,,
2815,PARALCN,PARSONS AVE & E ALCOTT RD,,39.906053,-82.985751,,,,
2816,PARCORN,PARSONS AVE & CORR RD,,39.908958,-82.985537,,,,
2817,PARDERN,PARSONS AVE & DERING AVE,,39.912213,-82.985286,,,,
2819,PARMARN,PARSONS AVE & MARION RD,,39.923533,-82.984427,,,,
2820,PARINNN,PARSONS AVE & E INNIS AVE,,39.925553,-82.984271,,,,
2822,PARMORN,PARSONS AVE & E MORRILL AVE,,39.929639,-82.983989,,,,
2823,PARMARN,PARSONS AVE & E MARKISON AVE,,39.931041,-82.983886,,,,
2824,PARJENN,PARSONS AVE & E JENKINS AVE,,39.93332,-82.983722,,,,
2825,PARFREN,PARSONS AVE & FREBIS AVE,,39.935379,-82.983562,,,,
2826,PARGATN,PARSONS AVE & E GATES ST,,39.937368,-82.98341,,,,
2827,PARTHUN,PARSONS AVE & THURMAN AVE,,39.93944,-82.983243,,,,
2828,PARSTEN,PARSONS AVE & STEWART AVE,,39.941651,-82.983066,,,,
2829,CLE585S,CLEVELAND AVE & ABBOTT LABS,,39.975109,-82.990128,,,,
2831,PARSYCN,PARSONS AVE & SYCAMORE ST,,39.949546,-82.982465,,,,
2837,SAIATCS,SAINT CLAIR AVE & ATCHESON ST,,39.974145,-82.980724,,,,
2838,PARGROVN,PARSONS AVE & GROVEPORT RD,PARSONS AVE & GROVEPORT PIKE LOOP,39.918606,-82.984814,,,,
2841,FISLEIE,FISHINGER RD & LEIGHTON RD,,40.029072,-83.064992,,,,
2842,FISMERSE,FISHINGER RD & MERRIWEATHER DR,,40.026595,-83.059689,,,,
2843,FISTREE,FISHINGER RD & TREMONT RD,,40.025607,-83.058219,,,,
2846,NORFISS,NORTH STAR RD & FISHINGER RD,,40.023258,-83.047561,,,,
2847,NORSTAS,NORTH STAR & STANHOPE DR,N STAR RD & STANHOPE DR,40.022003,-83.047655,,,,
2849,ZOLOPPW,ZOLLINGER RD & HALSTEAD RD,,40.019189,-83.050837,,,,
2851,NORZOLS,NORTHWEST BLVD & ZOLLINGER RD,,40.018418,-83.057489,,,,
2852,NORRIDS,NORTHWEST BLVD & RIDGEVIEW RD,,40.014595,-83.057744,,,,
2853,NORNORTS,NORTHWEST BLVD & NORTHAM RD,,40.01193,-83.057937,,,,
2854,REESHAN,REED RD & SHANNON LN,,40.064997,-83.066401,,,,
2855,NORLANSE,NORTHWEST BLVD & W LANE AVE,,40.00687,-83.058276,,,,
2856,NORBERSE,NORTHWEST BLVD & BERKSHIRE RD,,40.005624,-83.058353,,,,
2857,NORSUFSE,NORTHWEST BLVD & SUFFOLK RD,,40.003781,-83.058158,,,,
2858,NORGUISE,NORTHWEST BLVD & GUILFORD RD,,40.001897,-83.055686,,,,
2859,NORBARSE,NORTHWEST BLVD & BARRINGTON RD,,39.999489,-83.053979,,,,
2860,NORGLESE,NORTHWEST BLVD & GLENN AVE,,39.998425,-83.052558,,,,
2861,NORELMSE,NORTHWEST BLVD & ELMWOOD AVE,,39.997501,-83.050629,,,,
2862,NORSTASE,NORTHWEST BLVD & STANFORD RD,,39.996615,-83.049054,,,,
2864,NORNORSE,NORTHWEST BLVD & NORTHWEST CT,,39.995753,-83.046862,,,,
2865,NORCHASE,NORTHWEST BLVD & CHAMBERS RD,,39.993457,-83.041924,,,,
2867,NOR5THS,NORTHWEST BLVD & W 5TH AVE,,39.988828,-83.040963,,,,
2868,NORTHOSE,NORTHWEST BLVD & THORNWOOD PL,,39.986836,-83.041075,,,,
2869,SUNEXES,SUNLAWN DR & EXECUTIVE PKWY,,40.083881,-82.900258,,,,
2879,3RDMEAW,W 3RD AVE & MEADOW RD,,39.984886,-83.038725,,,,
2880,NORKINN,NORTHWEST BLVD & KING AVE,,39.991299,-83.040489,,,,
2881,NORCHANN,NORTHWEST BLVD & CHAMBERS RD,,39.99365,-83.041989,,,,
2882,NORINDNW,NORTHWEST BLVD & INDEPENDENCE RD,,39.994944,-83.044784,,,,
2883,NORNORN,NORTHWEST BLVD & NORTHWEST CT,,39.995721,-83.046454,,,,
2884,NORNORNW,NORTHWEST BLVD & NORTH STAR RD,,39.996829,-83.04911,,,,
2885,NORWILSN,NORTHWEST BLVD & WILSHIRE DR,,40.009517,-83.057918,,,,
2887,NORRIDN,NORTHWEST BLVD & RIDGEVIEW RD,,40.014359,-83.057619,,,,
2889,ZOLMOUE,ZOLLINGER RD & MOUNT HOLYOKE RD,,40.019152,-83.05304,,,,
2890,ZOLHALE,ZOLLINGER RD & HALSTEAD RD,,40.019068,-83.050764,,,,
2891,ZOLNORE,ZOLLINGER RD & NORTH STAR RD,,40.018923,-83.04806,,,,
2892,NORSTAN,NORTH STAR RD & STANHOPE DR,,40.021704,-83.047557,,,,
2893,NORFISN,NORTH STAR RD & FISHINGER RD,N STAR RD & FISHINGER RD,40.023393,-83.047425,,,,
2894,FISCHAW,FISHINGER RD & CHAUCER DR,,40.024132,-83.050426,,,,
2895,FISPEMW,FISHINGER RD & PEMBERTON DR,,40.024294,-83.054801,,,,
2896,FISTREW,FISHINGER RD & TREMONT RD,,40.025733,-83.058097,,,,
2898,EXE440E,4403 EXECUTIVE PKWY,,40.083126,-82.897256,,,,
2900,HIGBROS,N HIGH ST & W BROAD ST,,39.962941,-83.000951,,,,
2901,VANREDS,VANTAGE DR & RED ROOF INN,,40.116283,-83.014579,,,,
2902,HENGETE,HENDERSON RD & GETTYSBURG RD,,40.055934,-83.072279,,,,
2906,GOO582W,582 W GOODALE ST,,39.97427,-83.019153,,,,
2907,GOOYARW,GOODALE BLVD & YARD ST,,39.974267,-83.024937,,,,
2908,NORGOON,NORTHWEST BLVD & GOODALE BLVD,,39.974827,-83.028984,,,,
2909,NORBURNW,NORTHWEST BLVD & BURR AVE,,39.976442,-83.029129,,,,
2910,NORWILLN,NORTHWEST BLVD & WILLIAMS AVE,,39.977926,-83.029817,,,,
2911,1STNORW,W 1ST AVE & NORTHWEST BLVD,,39.979677,-83.032032,,,,
2912,1STOXLW,W 1ST AVE & OXLEY RD,,39.979933,-83.034534,,,,
2913,1STVIRW,W 1ST AVE & VIRGINIA AVE,,39.981177,-83.037596,,,,
2914,1STWILW,W 1ST AVE & WILLARD AVE,,39.981552,-83.038645,,,,
2915,1STAVOW,W 1ST AVE & AVONDALE AVE,,39.981753,-83.041761,,,,
2916,1STGRAW,W 1ST AVE & GRANDVIEW AVE,,39.981893,-83.044845,,,,
2917,1STBROVW,W 1ST AVE & BROADVIEW AVE,,39.981949,-83.046163,,,,
2918,1STOAKW,W 1ST AVE & OAKLAND AVE,,39.982077,-83.04909,,,,
2919,1STELMW,W 1ST AVE & ELMWOOD AVE,,39.982186,-83.051565,,,,
2920,1STGLEW,W 1ST AVE & GLENN AVE,,39.982291,-83.054035,,,,
2921,1STLINW,W 1ST AVE & LINCOLN RD,,39.982409,-83.056613,,,,
2922,1STCAMW,W 1ST AVE & CAMBRIDGE BLVD,,39.982468,-83.057972,,,,
2924,3RDCAMW,W 3RD AVE & CAMBRIDGE BLVD,,39.985755,-83.058282,,,,
2925,ARLCARN,ARLINGTON AVE & CARDIGAN AVE,,39.986634,-83.059845,,,,
2926,5THARLW,W 5TH AVE & ARLINGTON AVE,,39.989487,-83.059967,,,,
2927,5THROXW,W 5TH AVE & ROXBURY RD,,39.98957,-83.061955,,,,
2929,5THROXE,W 5TH AVE & ROXBURY RD,,39.989477,-83.062168,,,,
2930,ARLCARS,ARLINGTON AVE & CARDIGAN AVE,,39.986915,-83.059997,,,,
2932,3RDCAME,W 3RD AVE & CAMBRIDGE BLVD,,39.985631,-83.058266,,,,
2933,CAM1STS,CAMBRIDGE BLVD & W 1ST AVE,,39.982497,-83.058268,,,,
2934,1STWYAE,W 1ST AVE & WYANDOTTE RD,,39.982227,-83.055606,,,,
2935,1STWESE,W 1ST AVE & WESTWOOD AVE,,39.982118,-83.053096,,,,
2936,1STASHE,W 1ST AVE & ASHLAND AVE,,39.982006,-83.050581,,,,
2937,1STFAIE,W 1ST AVE & FAIRVIEW AVE,,39.981894,-83.048047,,,,
2938,1STGRAE,W 1ST AVE & GRANDVIEW AVE,,39.981774,-83.045239,,,,
2939,1STGLEE,W 1ST AVE & GLENDALE AVE,,39.981718,-83.043592,,,,
2940,1STHOPE,W 1ST AVE & HOPE AVE,,39.981578,-83.040281,,,,
2941,1STVIRE,W 1ST AVE & VIRGINIA AVE,,39.981016,-83.037565,,,,
2942,1STOXLE,W 1ST AVE & OXLEY RD,,39.979842,-83.034744,,,,
2943,NOR1STSE,NORTHWEST BLVD & W 1ST AVE,,39.979514,-83.031949,,,,
2945,NORBURSE,NORTHWEST BLVD & BURR AVE,,39.976577,-83.029439,,,,
2946,NORGOOS,NORTHWEST BLVD & GOODALE BLVD,,39.974839,-83.029266,,,,
2947,GOOYARE,GOODALE BLVD & YARD ST,,39.974141,-83.02576,,,,
2953,HARMOUS,HARRISBURG PIKE & W MOUND ST,,39.944606,-83.036764,,,,
2954,HAR771S,771 HARRISBURG PIKE,,39.941809,-83.038887,,,,
2955,HARGARS,HARRISBURG PIKE & GARLING AVE,,39.939865,-83.040387,,,,
2957,HARRANS,HARRISBURG PIKE & RANSBURG AVE,,39.937486,-83.042238,,,,
2958,HARROSS,HARRISBURG PIKE & ROSEMONT AVE,,39.9359,-83.043564,,,,
2959,HAR111S,1117 HARRISBURG PIKE,,39.933384,-83.046745,,,,
2960,HAREAKS,HARRISBURG PIKE & EAKIN RD,,39.931744,-83.048832,,,,
2961,HAR151S,1515 HARRISBURG PIKE,,39.926463,-83.057121,,,,
2963,HAR165S,1657 HARRISBURG PIKE,,39.923768,-83.059249,,,,
2964,HARCLIS,HARRISBURG PIKE & CLIME RD,,39.92069,-83.061773,,,,
2965,HARALKS,HARRISBURG PIKE & ALKIRE RD,,39.915172,-83.065953,,,,
2966,HARBLUS,HARRISBURG PIKE & BLUE ROCK BLVD,,39.911203,-83.069367,,,,
2967,HARHYDS,HARRISBURG PIKE & HYDE RD,,39.908832,-83.071707,,,,
2968,BROHOMS,BROADWAY & HOME RD,BROADWAY & HOME ROAD,39.901249,-83.077996,,,,
2973,BROROSS,BROADWAY & ROSE AVE,,39.887929,-83.088704,,,,
2974,BROBURS,BROADWAY & BURR OAK DR,,39.885675,-83.090658,,,,
2988,COLLEIW,COLUMBUS ST & LEITHART DR,,39.881304,-83.072052,,,,
2989,COLSECW,COLUMBUS ST & SECURITY DR,,39.881426,-83.076882,,,,
2993,RICSOUNF,RICHARD AVE & SOUTHWEST BLVD,,39.890952,-83.080245,,,,
2994,RICADDN,RICHARD AVE & ADDISON DR,,39.89273,-83.080176,,,,
2995,RICPARN,RICHARD AVE & PARLIN DR,,39.895049,-83.078824,,,,
2996,PARBROW,PARLIN DR & BROADWAY,,39.89551,-83.081867,,,,
2997,BROCENN,BROADWAY & CENTRAL AVE,,39.897761,-83.080449,,,,
2998,BRO3136,3136 BROADWAY,,39.900469,-83.078398,,,,
2999,HARHYDN,HARRISBURG PIKE & HYDE RD,,39.908845,-83.071358,,,,
3000,HARREDN,HARRISBURG PIKE & RED ROCK BLVD,,39.914253,-83.066391,,,,
3001,HARBIGN,HARRISBURG PIKE & BIG RUN RD E,,39.916344,-83.064898,,,,
3002,HAR196N,1896 HARRISBURG PIKE,,39.919363,-83.062659,,,,
3003,HARFRAN,HARRISBURG PIKE & FRANK RD,,39.921589,-83.060873,,,,
3004,HAR161N,1616 HARRISBURG PIKE,,39.925016,-83.058049,,,,
3005,HAROCTN,HARRISBURG PIKE & OCTOBER RIDGE DR,,39.92646,-83.056896,,,,
3006,HARHOPN,HARRISBURG PIKE & HOPKINS AVE,,39.932286,-83.047909,,,,
3007,HARBELN,HARRISBURG PIKE & BELMEAD AVE,,39.933296,-83.0466,,,,
3008,HARLAUN,HARRISBURG PIKE & LAUREL AVE,,39.93483,-83.044652,,,,
3009,HARROSN,HARRISBURG PIKE & ROSEMONT AVE,,39.935942,-83.043295,,,,
3010,HARRANN,HARRISBURG PIKE & RANSBURG AVE,,39.937412,-83.042067,,,,
3011,HARGARN,HARRISBURG PIKE & GARLING AVE,,39.939746,-83.040263,,,,
3012,HAR800N,800 HARRISBURG PIKE,,39.941849,-83.038657,,,,
3014,FIE5THN,FIELDS AVE & E 5TH AVE,,39.987117,-82.991984,,,,
3015,WALCOON,WALFORD ST & E COOKE RD,,40.045609,-82.963027,,,,
3016,WALCASN,WALFORD ST & CASE RD,,40.048108,-82.962828,,,,
3017,WALWARN,WALFORD ST & WARD RD,,40.050933,-82.962721,,,,
3018,WALCOLN,WALFORD ST & COLFAX AVE,,40.055191,-82.962551,,,,
3019,WALFITN,WALFORD ST & FITZROY DR,,40.057528,-82.96214,,,,
3022,NORTAYN,NORTHTOWNE BLVD & TAYMOUTH RD,,40.066193,-82.958289,,,,
3025,NORMINN,NORTHTOWNE BLVD & MINERVA AVE,,40.071609,-82.962205,,,,
3026,NORHONNW,NORTHTOWNE BLVD & HONEYTREE LOOP W,,40.074492,-82.96371,,,,
3028,TAMMAPNW,TAMARACK CIR N & MAPLE CANYON,,40.077472,-82.965519,,,,
3029,TAMTAMN,TAMARACK BLVD & TAMARACK CIR N,TAMARACK BLVD & TAMARACK CIRCLE N,40.078012,-82.968115,,,,
3031,TAMWALN,TAMARACK BLVD & WALDEN DR,,40.081013,-82.96909,,,,
3034,SHA161N,SHARON WOODS BLVD & STATE ROUTE 161,,40.087675,-82.969394,,,,
3035,SHAHAMN,SHARON WOODS BLVD & HAMPSTEAD DR,,40.090398,-82.970308,,,,
3036,SHAFAIN,SHARON WOODS BLVD & FAIRHAVEN RD,,40.093138,-82.969637,,,,
3038,SHAJEWN,SHARON WOODS BLVD & JEWETT DR,,40.09731,-82.962993,,,,
3039,SHACARN,SHARON WOODS BLVD & CARDINGTON AVE,,40.100099,-82.962062,,,,
3040,SHABRON,SHARON WOODS BLVD & BROOKHURST AVE,,40.103744,-82.963111,,,,
3043,SKYEVIS,SKYWAE DR & EVINRUDE AVE,,40.103423,-82.970538,,,,
3045,SKYOLDS,SKYWAE DR & OLD SHAY CT,,40.100108,-82.969064,,,,
3049,SHAFAIS,SHARON WOODS BLVD & FAIRHAVEN RD,,40.09327,-82.969713,,,,
3050,SHADURS,SHARON WOODS BLVD & DURBRIDGE RD,,40.08985,-82.970193,,,,
3051,SHA161S,SHARON WOODS BLVD & STATE ROUTE 161,,40.087557,-82.969679,,,,
3053,TAMROCS,TAMARACK BLVD & ROCKY PINE LOOP S,,40.081201,-82.969222,,,,
3055,TAMSANS,TAMARACK BLVD & SANDALWOOD PL,,40.076027,-82.968138,,,,
3056,TAMNORE,TAMARACK CIR S & NORTHTOWNE BLVD,,40.075524,-82.965513,,,,
3057,NORFLES,NORTHTOWNE BLVD & FLEETWOOD DR,,40.074224,-82.963537,,,,
3058,NORNORS,NORTHTOWNE BLVD & NORTHCLIFF DR,,40.07182,-82.962321,,,,
3059,NORBRIE,NORTHTOWNE BLVD & BRITTANY RD,,40.068339,-82.961872,,,,
3061,NOR460S,4600 NORTHTOWNE BLVD,,40.063444,-82.959883,,,,
3062,WALFITS,WALFORD ST & FITZROY DR,,40.056917,-82.962514,,,,
3063,WALFENS,WALFORD ST & FENTON ST,,40.05409,-82.962679,,,,
3064,WALWARS,WALFORD ST & WARD RD,,40.051156,-82.962868,,,,
3066,WALCASS,WALFORD ST & CASE RD,,40.047973,-82.962943,,,,
3067,REFCOUE,REFUGEE RD & COURTRIGHT RD,,39.916357,-82.897176,,,,
3068,GENCLEWF,GENESSEE AVE & CLEVELAND AVE,,40.018741,-82.965503,,,,
3070,REETARS,REED RD & TARTAN LN,,40.065178,-83.066521,,,,
3072,CLEBLEN,CLEVELAND AVE & BLENDON WOODS BLVD,,40.093387,-82.950331,,,,
3073,CLEBELLN,CLEVELAND AVE & BELLA VIA AVE,,40.096026,-82.95013,,,,
3074,CLEHOMN,CLEVELAND AVE & HOME ACRE DR,,40.097983,-82.949969,,,,
3075,CLESCHN,S CLEVELAND AVE & SCHROCK RD,,40.111193,-82.949019,,,,
3076,CLECOPN,S CLEVELAND AVE & COPELAND MILL RD,,40.112709,-82.948918,,,,
3077,CLE340N,340 S CLEVELAND AVE,,40.116149,-82.948663,,,,
3078,CLEDEES,CLEVELAND AVE & DEEWOOD DR,,40.09633,-82.950307,,,,
3079,CLELAUS,CLEVELAND AVE & LAURELWOOD DR,,40.093165,-82.950543,,,,
3081,CLEFUJS,CLEVELAND AVE & FUJI DR,,40.088864,-82.950876,,,,
3082,CLELAMN,CLEVELAND AVE & LAMONT AVE,,40.043049,-82.959723,,,,
3084,CLEFERN,CLEVELAND AVE & FERRIS RD,,40.050481,-82.953587,,,,
3085,CLEBELCN,CLEVELAND AVE & BELCHER DR,,40.0555,-82.953204,,,,
3086,CLEMORN,CLEVELAND AVE & MORSE RD,,40.05916,-82.952914,,,,
3087,CLEABIN,CLEVELAND AVE & ABINGTON RD,,40.064432,-82.952521,,,,
3088,CLENORWN,CLEVELAND AVE & NORTHWOLD RD,,40.06658,-82.952353,,,,
3091,CLEWOON,CLEVELAND AVE & WOODLEY RD,,40.076189,-82.951621,,,,
3092,CLEWILN,CLEVELAND AVE & WILDWOOD RD,,40.07885,-82.951434,,,,
3094,161FORW,STATE ROUTE 161 & FOREST HILLS BLVD,,40.084191,-82.9448,,,,
3095,WES161N,WESTERVILLE RD & STATE ROUTE 161,,40.081295,-82.928354,,,,
3097,WESPARIB,WESTERVILLE RD & PARIS BLVD,,40.092734,-82.925389,,,,
3098,WESDEMN,WESTERVILLE RD & DEMPSEY RD,,40.096409,-82.92518,,,,
3099,STASCHN,S STATE ST & E SCHROCK RD,,40.110056,-82.925583,,,,
3101,STACHEN,S STATE ST & CHERRINGTON RD,,40.113928,-82.927039,,,,
3103,STAWALN,S STATE ST & E WALNUT ST,,40.121968,-82.93005,,,,
3105,NEIKINN,NEIL AVE & KING AVE,,39.990627,-83.01365,,,,
3106,NAGCLEE,E NAGHTEN ST & CLEVELAND AVE,,39.968547,-82.990802,,,,
3107,HAMSPRN,HAMILTON AVE & E SPRING ST,,39.968942,-82.981928,,,,
3114,STAWALS,S STATE ST & W WALNUT ST,,40.121252,-82.929997,,,,
3115,STAHIAS,S STATE ST & HIAWATHA AVE,,40.117963,-82.928776,,,,
3117,STACHES,S STATE ST & CHERRINGTON RD,,40.114206,-82.927396,,,,
3119,STASCHS,S STATE ST & E SCHROCK RD,,40.110421,-82.92597,,,,
3120,WESEMRS,WESTERVILLE RD & EMRICK RD,,40.095516,-82.925489,,,,
3121,WESPARS,WESTERVILLE RD & PARIS CT,,40.092373,-82.925607,,,,
3123,161WESE,STATE ROUTE 161 & WESTERVILLE RD,,40.08069,-82.927697,,,,
3124,161FORE,STATE ROUTE 161 & FOREST HILLS BLVD,STATE RTE 161 N SVC RD,40.084105,-82.944777,,,,
3125,CLE161SF,CLEVELAND AVE & STATE ROUTE 161,,40.084198,-82.951251,,,,
3126,CLEWILS,CLEVELAND AVE & WILDWOOD RD,,40.078492,-82.951662,,,,
3128,CLEWOOS,CLEVELAND AVE & WOODLEY RD,,40.07594,-82.951844,,,,
3131,CLETAYS,CLEVELAND AVE & TAYMOUTH RD,,40.066348,-82.95259,,,,
3133,CLEMORS,CLEVELAND AVE & MORSE RD,,40.058766,-82.953179,,,,
3134,CLEBELS,CLEVELAND AVE & BELCHER DR,,40.054783,-82.95349,,,,
3135,CLEFERS,CLEVELAND AVE & FERRIS RD,,40.049263,-82.9541,,,,
3137,CLECOOS,CLEVELAND AVE & E COOKE RD,,40.045064,-82.9581,,,,
3138,CLELAMS,CLEVELAND AVE & LAMONT AVE,,40.042989,-82.960053,,,,
3139,CLEELMS,CLEVELAND AVE & ELMORE AVE,,40.041489,-82.960877,,,,
3140,MAINOEE,E MAIN ST & NOE BIXBY RD,,39.954594,-82.851803,,,,
3142,SPRWALW,W SPRING ST & N WALL ST,,39.966206,-83.002663,,,,
3143,MAINOEW,E MAIN ST & NOE BIXBY RD,,39.954829,-82.852023,,,,
3144,MAIORMW,W MAIN ST & ORMSBEE AVE,,40.125514,-82.965896,,,,
3145,MAIORME,W MAIN ST & ORMSBEE AVE,,40.125391,-82.965614,,,,
3146,HARZETS,HARRISBURG PIKE & ZETTLER CENTER DR,,39.930187,-83.05124,,,,
3147,CAS10TN,N CASSADY AVE & E 10TH AVE,,39.989676,-82.930527,,,,
3148,CAS13TN,N CASSADY AVE & E 13TH AVE,,39.992386,-82.930261,,,,
3153,CASBAYN,N CASSADY AVE & BAYLOR AVE,,40.013914,-82.929097,,,,
3155,CASCASN,N CASSADY AVE & CASSADY VILLAGE TRL,,40.016834,-82.928912,,,,
3157,GATGATN,GATEWOOD RD & GATEWOOD CT,,40.021188,-82.923264,,,,
3158,GATMONN,GATEWOOD RD & MONMOUTH DR,,40.023438,-82.923924,,,,
3160,GATCHEN,GATEWOOD RD & CHELFORD DR,,40.026107,-82.923198,,,,
3162,CASCASSW,CASSADY PL & N CASSADY AVE,CASSADY PLACE & N CASSADY AVE,40.026187,-82.930199,,,,
3163,CASSUNW,N CASSADY AVE & SUNBURY RD,,40.026987,-82.932542,,,,
3165,HAMMOUN,HAMILTON AVE & MOUNT VERNON AVE,,39.970314,-82.982194,,,,
3166,CASSUNE,N CASSADY AVE & SUNBURY RD,,40.026761,-82.932426,,,,
3167,CASCASNE,CASSADY PL & N CASSADY AVE,CASSADY PLACE & N CASSADY AVE,40.026223,-82.930024,,,,
3169,CHEGATE,CHELFORD DR & GATEWOOD RD,,40.026285,-82.923565,,,,
3171,GATMONS,GATEWOOD RD & MONMOUTH DR,,40.023385,-82.924073,,,,
3172,CASAGLS,N CASSADY AVE & AGLER RD,,40.02031,-82.928792,,,,
3173,GATAGLS,GATEWOOD RD & AGLER RD,,40.021126,-82.9234,,,,
3174,CASBAYS,N CASSADY AVE & BAYLOR AVE,,40.013361,-82.929237,,,,
3175,KENLONS,KENNY RD & LONDON DR,,40.027958,-83.046966,,,,
3176,5THTAYE,E 5TH AVE & TAYLOR AVE,,39.98519,-82.960575,,,,
3177,5THSTEE,E 5TH AVE & STERLING AVE,,39.984658,-82.919914,,,,
3178,5THJAME,E 5TH AVE & N JAMES RD,,39.984409,-82.908644,,,,
3179,CASKENS,N CASSADY AVE & KENILWORTH RD,,39.992087,-82.930414,,,,
3180,MOUSAIE,MOUNT VERNON AVE & SAINT CLAIR AVE,,39.970706,-82.981194,,,,
3181,CAS5THS,N CASSADY AVE & E 5TH AVE,,39.985403,-82.93154,,,,
3183,5THOSBE,E 5TH AVE & OSBORN AVE,,39.984385,-82.912411,,,,
3184,5TH7THE,E 5TH AVE & E 7TH AVE,,39.985158,-82.904661,,,,
3185,5TH370E,3706 E 5TH AVE,,39.985602,-82.89967,,,,
3186,5TH409E,4099 E 5TH AVE,,39.986083,-82.895203,,,,
3187,LIVNOEE,E LIVINGSTON AVE & NOE BIXBY RD,,39.943321,-82.853274,,,,
3188,LIVLONE,E LIVINGSTON AVE & LONSDALE RD,,39.94315,-82.850289,,,,
3189,LIVBAIE,E LIVINGSTON AVE & BAIRSFORD DR,,39.943061,-82.844026,,,,
3190,LIVWALE,E LIVINGSTON AVE & WALNUT HILL BLVD,,39.942447,-82.837859,,,,
3191,LIVSARE,E LIVINGSTON AVE & SARANAC DR,,39.942287,-82.835388,,,,
3192,LIVBRIE,E LIVINGSTON AVE & BRICE RD,,39.941991,-82.830317,,,,
3200,MAIHAFE,E MAIN ST & HAFT DR,,39.955118,-82.806291,,,,
3202,MAIJACE,E MAIN ST & JACKSON ST,,39.955238,-82.800358,,,,
3203,MAIGRAHE,E MAIN ST & GRAHAM RD,,39.955324,-82.795674,,,,
3204,5TH430E,4301 E 5TH AVE,,39.987174,-82.88955,,,,
3205,5TH4301W,4301 E 5TH AVE,,39.987441,-82.88947,,,,
3206,MAIJACW,E MAIN ST & JACKSON ST,,39.955403,-82.799452,,,,
3208,MAIHAFW,E MAIN ST & HAFT DR,,39.955272,-82.806424,,,,
3210,MAIHENW,E MAIN ST & HENTZ DR,,39.955124,-82.81465,,,,
